dCategory,Team,League,City,City Alt.,Neighborhood,zipcode,US lat,US lon,Intensity Score,Race,Fandom Level,"Struggling (Less than $10,000)","Getting By ($10,000 to $14,999)","Getting By ($15,000 to $19,999)","Starting Out ($20,000 to $24,999)","Starting Out ($25,000 to $29,999)","Starting Out ($30,000 to $34,999)","Middle Class ($35,000 to $39,999)","Middle Class ($40,000 to $44,999)","Middle Class ($45,000 to $49,999)","Comfortable ($50,000 to $59,999)","Comfortable ($60,000 to $74,999)","Doing Well ($75,000 to $99,999)","Prosperous ($100,000 to $124,999)","Prosperous ($125,000 to $149,999)","Wealthy ($150,000 to $199,999)","Affluent ($200,000 or more)"
Fans,Arizona Coyotes,NHL,Ak-Chin Indian Community,Maricopa,Maricopa,85139,33.02838,-112.08764,0,Native American,convertible,0,0,0,0,0,0,0,0,0,0,0,0,0,0,1,0
Fans,Arizona Coyotes,NHL,Aliquippa,Aliquippa,Aliquippa,15001,40.63673,-80.24006,0,Native American,convertible,0,0,0,0,0,0,0,0,0,0,0,0,0,0,0,0
Fans,Arizona Coyotes,NHL,American Fork,American Fork,American Fork,84003,40.395796,-111.803101,0,Native American,convertible,0,0,0,0,0,0,0,0,0,0,0,0,0,0,0,0
Fans,Arizona Coyotes,NHL,Apache Junction,Apache Junction,Apache Junction,85119,33.395202,-111.519692,61,Native American,avid,0,0,0,0,0,0,0,0,0,0,0,0,0,0,0,0
Fans,Arizona Coyotes,NHL,Auburn,Auburn,Auburn,98001,47.309496,-122.264469,0,Native American,convertible,0,0,0,0,0,0,0,0,0,0,0,0,0,0,0,0
Fans,Arizona Coyotes,NHL,Avondale,Avondale,Avondale,85323,33.4356,-112.3496,39,Native American,casual,0,0,0,0,0,0,0,0,0,0,0,0,0,0,0,0
Fans,Arizona Coyotes,NHL,Baldwin,Baldwin,Baldwin,21013,39.496406,-76.486624,0,Native American,convertible,0,0,0,0,0,0,0,0,0,0,0,0,0,0,0,0
Fans,Arizona Coyotes,NHL,Barrington,Barrington,Barrington,60010,42.146794,-88.165268,0,Native American,convertible,0,0,0,0,0,0,0,0,0,0,0,0,0,0,0,0
Fans,Arizona Coyotes,NHL,Beacon Square,New Port Richey,New Port Richey,34652,28.239369,-82.736882,0,Native American,convertible,0,0,0,0,0,0,0,0,0,0,0,0,0,0,0,0
Fans,Arizona Coyotes,NHL,Belfast,Belfast,Belfast,4915,44.404619,-69.040297,0,Native American,convertible,0,0,0,0,0,0,0,0,2,0,0,0,0,0,0,0
Fans,Arizona Coyotes,NHL,Bellevue,Bellevue,Bellevue,98004,47.615471,-122.207221,0,Native American,convertible,0,0,0,0,0,0,0,0,0,0,0,0,0,0,0,0
Fans,Arizona Coyotes,NHL,Belvedere Tiburon,Belvedere Tiburon,Belvedere Tiburon,94920,37.872704,-122.464417,0,Native American,convertible,0,0,0,0,0,0,0,0,0,0,0,0,0,0,0,0
Fans,Arizona Coyotes,NHL,Benson,Benson,Benson,85602,32.035885,-110.262611,0,Native American,convertible,0,0,0,0,0,0,0,0,0,0,0,1,0,0,0,0
Fans,Arizona Coyotes,NHL,Bisbee,Bisbee,Bisbee,85603,31.44815,-109.92841,0,Native American,convertible,0,0,0,0,0,0,0,0,0,0,0,0,0,0,0,0
Fans,Arizona Coyotes,NHL,Blasdell,Buffalo,Buffalo,14219,42.786308,-78.826444,0,Native American,convertible,0,0,0,0,0,0,0,0,0,0,0,0,0,0,0,0
Fans,Arizona Coyotes,NHL,Blue Springs,Blue Springs,Blue Springs,64014,39.00569,-94.252933,0,Native American,convertible,0,0,0,0,0,0,0,0,0,0,0,0,0,0,0,0
Fans,Arizona Coyotes,NHL,Bonita Springs,Bonita Springs,Bonita Springs,34135,26.377129,-81.733377,0,Native American,convertible,0,0,0,0,0,0,1,0,0,0,0,0,0,0,0,0
Fans,Arizona Coyotes,NHL,Braintree,Braintree,Braintree,2184,42.202216,-71.005192,0,Native American,convertible,0,0,0,0,0,0,0,0,0,0,0,0,0,0,0,0
Fans,Arizona Coyotes,NHL,Brentwood,Brentwood,Brentwood,94513,37.922228,-121.668359,0,Native American,convertible,0,0,0,0,0,0,0,0,0,0,0,0,0,0,0,0
Fans,Arizona Coyotes,NHL,Bridgetown North,Cincinnati,Cincinnati,45211,39.158409,-84.602646,0,Native American,convertible,0,0,0,0,0,0,0,0,0,0,0,0,0,0,0,0
Fans,Arizona Coyotes,NHL,Bridgewater,Bridgewater,Bridgewater,2324,41.973741,-70.976558,0,Native American,convertible,0,0,0,0,0,0,0,0,0,0,0,0,0,0,0,0
Fans,Arizona Coyotes,NHL,Brighton,Brighton,Brighton,2135,42.3501,-71.15644,0,Native American,convertible,0,0,1,0,0,0,0,0,0,0,0,0,0,0,0,0
Fans,Arizona Coyotes,NHL,Bristol,Bristol,Bristol,6010,41.681198,-72.939577,0,Native American,convertible,0,0,0,0,0,0,0,0,0,0,0,2,0,0,0,0
Fans,Arizona Coyotes,NHL,Buckeye,Buckeye,Buckeye,85326,33.37032,-112.58378,38,Native American,casual,0,0,0,0,0,0,0,0,0,0,0,0,0,0,0,0
Fans,Arizona Coyotes,NHL,Burton,Burton,Burton,48509,43.025934,-83.604053,0,Native American,convertible,0,0,0,0,0,0,0,0,0,0,0,0,0,0,0,0
Fans,Arizona Coyotes,NHL,Carlton,Carlton,Carlton,97111,45.282393,-123.218624,0,Native American,convertible,0,0,0,0,0,0,0,0,0,0,0,0,0,0,0,0
Fans,Arizona Coyotes,NHL,Casa Grande,Casa Grande,Casa Grande,85122,32.8795,-111.75735,0,Native American,convertible,0,0,0,0,0,0,0,0,0,0,0,0,0,0,0,0
Fans,Arizona Coyotes,NHL,Casas Adobes,Tucson,Tucson,85704,32.33942,-110.984997,0,Native American,convertible,0,0,0,0,0,0,0,0,0,0,0,0,0,0,0,0
Fans,Arizona Coyotes,NHL,Cascade-Fairwood,Renton,Renton,98058,47.432927,-122.117999,0,Native American,convertible,0,0,0,0,0,0,0,0,0,0,0,0,0,0,0,0
Fans,Arizona Coyotes,NHL,Castle Pines,Castle Rock,Castle Rock,80108,39.445502,-104.852987,0,Native American,convertible,0,0,0,0,0,0,0,0,0,0,0,0,0,0,0,0
Fans,Arizona Coyotes,NHL,Catalina Foothills,Tucson,Tucson,85718,32.311724,-110.91898,0,Native American,convertible,0,0,0,0,0,0,0,0,0,0,1,0,0,0,0,0
Fans,Arizona Coyotes,NHL,Centerburg,Centerburg,Centerburg,43011,40.313394,-82.665177,0,Native American,convertible,0,0,0,0,0,0,0,0,0,4,0,0,0,0,0,0
Fans,Arizona Coyotes,NHL,Centreville,Centreville,Centreville,20120,38.84479,-77.46701,0,Native American,convertible,0,0,0,0,0,0,0,0,0,0,0,0,0,0,0,0
Fans,Arizona Coyotes,NHL,Chandler,Chandler,Chandler,85225,33.325991,-111.824367,48,Native American,avid,0,0,0,0,0,0,0,0,0,0,0,0,0,0,0,0
Fans,Arizona Coyotes,NHL,Chester,Chester,Chester,23831,37.320744,-77.454311,0,Native American,convertible,0,0,0,0,0,0,0,0,0,0,0,0,0,0,0,0
Fans,Arizona Coyotes,NHL,Collinsville,Collinsville,Collinsville,62234,38.67033,-89.98455,0,Native American,convertible,0,0,0,0,0,0,0,0,0,0,0,0,0,0,0,0
Fans,Arizona Coyotes,NHL,Colonial Park,Harrisburg,Harrisburg,17109,40.290953,-76.820294,0,Native American,convertible,0,0,0,0,0,0,0,0,0,0,0,0,0,0,0,0
Fans,Arizona Coyotes,NHL,Concrete,Concrete,Concrete,98237,48.508868,-121.697178,0,Native American,convertible,0,0,0,0,0,0,0,0,0,0,0,0,0,0,0,0
Fans,Arizona Coyotes,NHL,Coolidge,Coolidge,Coolidge,85128,32.97784,-111.51762,0,Native American,convertible,0,0,0,0,0,0,0,0,0,0,0,0,0,0,0,0
Fans,Arizona Coyotes,NHL,Coronado,Coronado,Coronado,92118,32.699235,-117.209642,0,Native American,convertible,0,0,0,0,0,0,0,0,0,0,0,0,0,0,0,0
Fans,Arizona Coyotes,NHL,Cottonwood,Cottonwood,Cottonwood,86326,34.73919,-112.00988,0,Native American,convertible,0,0,0,0,0,0,0,0,0,0,0,0,0,0,0,0
Fans,Arizona Coyotes,NHL,Cottonwood Heights,Salt Lake City,Salt Lake City,84121,40.622557,-111.777749,0,Native American,convertible,0,0,0,0,0,0,0,0,0,0,0,0,0,0,0,0
Fans,Arizona Coyotes,NHL,Country Club,Saint Louis,Saint Louis,63129,38.456553,-90.328212,0,Native American,convertible,0,0,0,0,0,0,0,0,0,0,0,0,0,0,0,0
Fans,Arizona Coyotes,NHL,Creve Coeur,Saint Louis,Saint Louis,63141,38.656502,-90.454219,0,Native American,convertible,0,0,0,0,0,0,0,0,0,0,0,0,0,0,0,0
Fans,Arizona Coyotes,NHL,Dallas,Dallas,Dallas,75201,32.781179,-96.790329,0,Native American,convertible,0,0,0,0,0,0,0,0,0,0,0,0,0,0,0,0
Fans,Arizona Coyotes,NHL,Denison,Denison,Denison,75020,33.76672,-96.546662,0,Native American,convertible,0,0,0,0,0,0,0,0,0,0,0,0,0,0,0,0
Fans,Arizona Coyotes,NHL,Derry,Derry,Derry,3038,42.88973,-71.27786,0,Native American,convertible,0,0,0,0,0,0,0,0,0,0,0,0,0,0,0,0
Fans,Arizona Coyotes,NHL,Dickson,Dickson,Dickson,37055,36.141461,-87.396417,0,Native American,convertible,0,0,0,0,0,0,0,0,0,0,0,0,0,0,0,0
Fans,Arizona Coyotes,NHL,Drexel,Davidson,Davidson,28036,35.50233,-80.83912,0,Native American,convertible,0,0,0,0,0,0,0,0,0,0,0,0,0,0,0,0
Fans,Arizona Coyotes,NHL,Duxbury,Duxbury,Duxbury,2332,42.052985,-70.710808,0,Native American,convertible,0,0,0,0,0,0,0,0,0,0,0,6,0,0,0,0
Fans,Arizona Coyotes,NHL,East Amherst,East Amherst,East Amherst,14051,43.042907,-78.698796,0,Native American,convertible,0,0,0,0,0,0,0,0,0,0,0,0,0,0,0,0
Fans,Arizona Coyotes,NHL,East Greenwich,East Greenwich,East Greenwich,2818,41.64335,-71.478002,0,Native American,convertible,0,0,0,0,0,0,0,0,0,0,0,0,0,0,0,0
Fans,Arizona Coyotes,NHL,East Renton Highlands,Renton,Renton,98059,47.505822,-122.115699,0,Native American,convertible,0,0,0,0,0,0,0,0,0,0,0,0,0,0,0,0
Fans,Arizona Coyotes,NHL,El Mirage,El Mirage,El Mirage,85335,33.592283,-112.327692,0,Native American,convertible,0,0,0,0,0,0,0,0,0,0,0,0,0,0,0,0
Fans,Arizona Coyotes,NHL,Emmett charter Township,Battle Creek,Battle Creek,49014,42.303041,-85.13044,0,Native American,convertible,0,0,0,0,0,0,0,0,0,0,0,0,0,0,0,0
Fans,Arizona Coyotes,NHL,Evansdale,Evansdale,Evansdale,50707,42.46915,-92.28102,0,Native American,convertible,0,0,0,0,0,0,0,0,0,0,0,0,0,0,0,0
Fans,Arizona Coyotes,NHL,Five Corners,Vancouver,Vancouver,98662,45.691419,-122.580457,0,Native American,convertible,0,0,0,0,0,0,0,0,0,0,0,0,0,0,0,0
Fans,Arizona Coyotes,NHL,Flagstaff,Flagstaff,Flagstaff,86001,35.287661,-111.639303,35,Native American,casual,0,0,0,0,0,0,0,0,0,0,0,0,0,0,0,0
Fans,Arizona Coyotes,NHL,Florence,Florence,Florence,85132,33.03145,-111.38734,0,Native American,convertible,0,0,0,0,0,0,0,0,0,0,0,0,0,0,0,0
Fans,Arizona Coyotes,NHL,Fort Hall,Fort Hall,Fort Hall,83203,43.033131,-112.428535,0,Native American,convertible,0,0,0,0,0,0,0,0,0,0,0,0,0,0,1,0
Fans,Arizona Coyotes,NHL,Fountain Hills,Fountain Hills,Fountain Hills,85268,33.606089,-111.743277,0,Native American,convertible,0,0,0,0,0,0,0,0,0,0,0,0,0,0,0,0
Fans,Arizona Coyotes,NHL,Franklin,Franklin,Franklin,37064,35.890746,-86.965691,0,Native American,convertible,0,0,0,0,0,0,0,0,0,0,0,0,0,0,0,0
Fans,Arizona Coyotes,NHL,Gallup,Gallup,Gallup,87301,35.534983,-108.737949,0,Native American,convertible,0,0,0,0,0,0,0,0,0,0,0,0,0,0,0,0
Fans,Arizona Coyotes,NHL,Gardner,Gardner,Gardner,1440,42.582529,-72.025884,0,Native American,convertible,0,0,0,0,0,0,0,0,0,0,0,0,0,0,0,0
Fans,Arizona Coyotes,NHL,Gatlinburg,Gatlinburg,Gatlinburg,37738,35.727782,-83.436982,0,Native American,convertible,0,0,0,0,0,0,0,0,0,0,0,0,0,0,0,0
Fans,Arizona Coyotes,NHL,Gilbert,Gilbert,Gilbert,85233,33.335401,-111.815281,68,Native American,avid,0,0,0,0,0,0,0,0,0,0,0,0,0,0,0,0
Fans,Arizona Coyotes,NHL,Glen Ellyn,Glen Ellyn,Glen Ellyn,60137,41.865213,-88.061479,0,Native American,convertible,0,0,0,1,0,0,0,0,0,0,0,0,0,0,0,0
Fans,Arizona Coyotes,NHL,Glendale,Glendale,Glendale,85301,33.531753,-112.177935,61,Native American,avid,0,0,0,0,0,0,0,0,0,0,0,0,0,0,0,0
Fans,Arizona Coyotes,NHL,Gold Canyon,Gold Canyon,Gold Canyon,85118,33.29367,-111.30429,0,Native American,convertible,0,0,0,0,0,0,0,0,0,0,0,0,0,0,0,0
Fans,Arizona Coyotes,NHL,Goodyear,Goodyear,Goodyear,85338,33.373698,-112.410262,58,Native American,avid,0,0,0,0,0,0,0,0,0,0,0,0,0,0,0,0
Fans,Arizona Coyotes,NHL,Gorham,Gorham,Gorham,4038,43.68258,-70.44571,0,Native American,convertible,0,0,0,0,0,0,0,0,0,0,0,0,0,0,0,0
Fans,Arizona Coyotes,NHL,Greater Carrollwood,Tampa,Tampa,33624,28.080256,-82.528248,0,Native American,convertible,0,0,0,0,0,0,0,0,0,0,0,0,0,0,0,0
Fans,Arizona Coyotes,NHL,Greater Northdale,Tampa,Tampa,33624,28.080256,-82.528248,0,Native American,convertible,0,0,0,0,0,0,0,0,0,0,0,0,0,0,0,0
Fans,Arizona Coyotes,NHL,Green Valley,Green Valley,Green Valley,85614,31.838223,-110.955483,0,Native American,convertible,0,0,0,0,0,0,0,0,0,0,0,0,0,0,0,0
Fans,Arizona Coyotes,NHL,Groveport,Groveport,Groveport,43125,39.84692,-82.88487,0,Native American,convertible,0,0,0,0,0,0,0,0,0,0,0,0,0,0,0,0
Fans,Arizona Coyotes,NHL,Hobart,Hobart,Hobart,46342,41.53226,-87.25504,0,Native American,convertible,0,0,0,0,0,0,0,0,0,0,0,0,0,0,0,0
Fans,Arizona Coyotes,NHL,Hope Mills,Hope Mills,Hope Mills,28348,34.921277,-78.93292,0,Native American,convertible,0,0,0,0,0,0,0,0,0,0,0,0,0,0,0,0
Fans,Arizona Coyotes,NHL,Irwin,Irwin,Irwin,15642,40.32451,-79.70115,0,Native American,convertible,0,0,0,0,0,0,0,0,0,0,0,0,0,0,0,0
Fans,Arizona Coyotes,NHL,Jordan,Jordan,Jordan,55352,44.658362,-93.601183,0,Native American,convertible,0,0,0,0,0,0,0,0,0,0,0,0,0,0,0,0
Fans,Arizona Coyotes,NHL,Jupiter,Jupiter,Jupiter,33458,26.936558,-80.131851,0,Native American,convertible,0,0,0,0,0,0,0,0,0,0,0,0,0,0,0,0
Fans,Arizona Coyotes,NHL,Keller,Keller,Keller,76248,32.934629,-97.24871,0,Native American,convertible,0,0,0,0,0,0,0,0,0,0,0,0,0,0,0,0
Fans,Arizona Coyotes,NHL,Ken Caryl,Littleton,Littleton,80128,39.591827,-105.083196,0,Native American,convertible,0,0,0,0,0,0,0,0,0,0,0,0,0,0,0,0
Fans,Arizona Coyotes,NHL,Kingman,Kingman,Kingman,86401,35.131719,-113.703932,0,Native American,convertible,0,0,0,0,0,0,0,0,0,1,0,0,0,0,0,0
Fans,Arizona Coyotes,NHL,Kirkwood,Saint Louis,Saint Louis,63122,38.578052,-90.42563,0,Native American,convertible,0,0,0,0,0,0,0,0,0,0,0,0,0,0,0,0
Fans,Arizona Coyotes,NHL,Lackawanna,Buffalo,Buffalo,14218,42.814558,-78.807754,0,Native American,convertible,0,0,0,0,0,0,0,0,0,0,0,0,0,0,0,0
Fans,Arizona Coyotes,NHL,Lake Havasu City,Lake Havasu City,Lake Havasu City,86403,34.48025,-114.348519,0,Native American,convertible,0,0,0,0,0,0,0,0,0,0,0,0,0,0,0,0
Fans,Arizona Coyotes,NHL,Lake of the Pines,Auburn,Auburn,95602,39.014933,-121.07047,0,Native American,convertible,0,0,0,0,0,0,0,0,0,0,0,0,0,0,0,0
Fans,Arizona Coyotes,NHL,Laramie,Laramie,Laramie,82070,41.43902,-105.801022,0,Native American,convertible,0,0,0,0,0,0,0,0,0,0,0,0,0,0,0,0
Fans,Arizona Coyotes,NHL,Lenoir City,Lenoir City,Lenoir City,37771,35.826473,-84.28365,0,Native American,convertible,0,0,0,0,0,0,0,0,0,0,0,0,0,0,0,0
Fans,Arizona Coyotes,NHL,Liberty,Liberty,Liberty,64068,39.298945,-94.436314,0,Native American,convertible,0,0,0,0,0,0,0,0,0,0,0,0,0,0,0,0
Fans,Arizona Coyotes,NHL,Lighthouse Point,Pompano Beach,Pompano Beach,33064,26.278502,-80.1153,0,Native American,convertible,0,0,0,0,0,0,0,0,0,0,0,0,0,0,0,0
Fans,Arizona Coyotes,NHL,Lincoln,Lincoln,Lincoln,68508,40.818272,-96.703937,0,Native American,convertible,0,0,0,0,0,0,0,0,0,0,0,0,0,0,0,0
Fans,Arizona Coyotes,NHL,Lino Lakes,Circle Pines,Circle Pines,55014,45.185565,-93.129272,0,Native American,convertible,0,0,0,0,0,0,0,0,0,0,0,0,0,0,0,0
Fans,Arizona Coyotes,NHL,Linthicum Heights,Linthicum Heights,Linthicum Heights,21090,39.20344,-76.66219,0,Native American,convertible,0,0,0,0,0,0,0,0,0,0,0,0,0,0,0,0
Fans,Arizona Coyotes,NHL,Long Beach,Long Beach,Long Beach,90802,33.756024,-118.201101,0,Native American,convertible,0,0,0,0,0,0,0,0,0,0,0,0,0,0,0,0
Fans,Arizona Coyotes,NHL,Louisa,Louisa,Louisa,23093,37.998422,-77.967416,0,Native American,convertible,0,0,0,0,0,0,0,0,0,0,0,0,0,0,0,0
Fans,Arizona Coyotes,NHL,Manor,Manor,Manor,78653,30.343501,-97.512902,0,Native American,convertible,0,0,0,0,0,0,0,0,0,0,0,0,0,0,0,0
Fans,Arizona Coyotes,NHL,Maplewood,Saint Paul,Saint Paul,55109,45.013234,-93.029667,0,Native American,convertible,0,0,0,0,0,0,0,0,0,0,0,0,0,0,0,0
Fans,Arizona Coyotes,NHL,Marana,Marana,Marana,85653,32.43674,-111.22538,0,Native American,convertible,0,0,0,0,0,0,0,0,0,0,0,0,0,0,0,0
Fans,Arizona Coyotes,NHL,Maricopa,Maricopa,Maricopa,85138,33.05811,-112.04764,50,Native American,avid,0,0,0,0,0,0,0,0,0,0,0,0,0,0,0,0
Fans,Arizona Coyotes,NHL,Martinez,Martinez,Martinez,94553,37.986421,-122.134976,0,Native American,convertible,0,0,0,0,0,0,0,0,0,0,0,0,0,0,0,0
Fans,Arizona Coyotes,NHL,Mehlville,Saint Louis,Saint Louis,63125,38.522152,-90.302115,0,Native American,convertible,0,0,0,0,0,0,0,0,0,0,0,0,0,0,0,0
Fans,Arizona Coyotes,NHL,Melville,Melville,Melville,11747,40.787248,-73.405573,0,Native American,convertible,0,0,0,0,0,0,0,0,0,0,0,0,0,0,0,0
Fans,Arizona Coyotes,NHL,Mesa,Mesa,Mesa,85201,33.440695,-111.856967,55,Native American,avid,0,0,0,0,0,0,0,0,0,0,0,0,0,0,0,0
Fans,Arizona Coyotes,NHL,Milliken,Milliken,Milliken,80543,40.387381,-104.841349,0,Native American,convertible,0,0,0,0,0,0,0,0,0,0,0,0,0,0,0,0
Fans,Arizona Coyotes,NHL,Monroeville,Monroeville,Monroeville,15146,40.42118,-79.7881,0,Native American,convertible,1,0,0,0,0,0,0,0,0,0,0,0,0,0,0,0
Fans,Arizona Coyotes,NHL,Moon,Coraopolis,Coraopolis,15108,40.5184,-80.16672,0,Native American,convertible,0,0,0,0,0,0,0,0,0,0,0,0,0,0,0,0
Fans,Arizona Coyotes,NHL,Mount Charleston,Las Vegas,Las Vegas,89124,36.114842,-115.613219,0,Native American,convertible,0,1,0,0,0,0,0,0,0,0,0,0,0,0,0,0
Fans,Arizona Coyotes,NHL,Munhall,Homestead,Homestead,15120,40.392619,-79.905171,0,Native American,convertible,0,0,0,0,0,0,0,0,0,1,0,0,0,0,0,0
Fans,Arizona Coyotes,NHL,New Hope,New Hope,New Hope,18938,40.357492,-74.998605,0,Native American,convertible,0,0,0,0,0,0,0,0,0,0,0,0,0,0,0,0
Fans,Arizona Coyotes,NHL,New Kingman-Butler,Kingman,Kingman,86409,35.247742,-114.040249,0,Native American,convertible,0,0,2,0,0,0,0,0,0,0,0,0,0,0,0,0
Fans,Arizona Coyotes,NHL,New Milford,New Milford,New Milford,6776,41.5843,-73.40575,0,Native American,convertible,0,0,0,0,0,0,0,1,0,0,0,0,0,0,0,0
Fans,Arizona Coyotes,NHL,New River,New River,New River,85087,33.924909,-112.127494,85,Native American,avid,0,0,0,0,0,0,0,1,0,0,0,0,0,0,0,0
Fans,Arizona Coyotes,NHL,North Marysville,Marysville,Marysville,98270,48.049576,-122.161951,0,Native American,convertible,0,0,0,0,0,0,0,0,0,0,0,0,0,0,0,0
Fans,Arizona Coyotes,NHL,North Tonawanda,North Tonawanda,North Tonawanda,14120,43.03867,-78.8642,13,Native American,casual,0,0,0,0,0,0,0,0,0,0,0,0,0,0,0,0
Fans,Arizona Coyotes,NHL,Norwood,Norwood,Norwood,2062,42.182798,-71.196277,0,Native American,convertible,0,0,0,0,0,0,0,0,0,0,0,0,0,0,0,0
Fans,Arizona Coyotes,NHL,Numidia,Numidia,Numidia,17858,41.042106,-76.424297,0,Native American,convertible,0,0,0,0,0,0,0,0,0,0,0,0,0,0,0,0
Fans,Arizona Coyotes,NHL,Oak Park,Oak Park,Oak Park,60302,41.894611,-87.789713,0,Native American,convertible,0,0,0,0,0,0,0,0,0,0,0,0,0,0,0,0
Fans,Arizona Coyotes,NHL,Oakdale,Oakdale,Oakdale,11769,40.738322,-73.131797,0,Native American,convertible,0,0,0,0,0,0,0,0,0,0,0,0,0,0,0,0
Fans,Arizona Coyotes,NHL,Odessa,Odessa,Odessa,79761,31.854178,-102.35022,0,Native American,convertible,0,0,0,0,0,0,0,0,0,0,0,0,0,0,0,0
Fans,Arizona Coyotes,NHL,Old Jamestown,Florissant,Florissant,63033,38.796049,-90.274512,0,Native American,convertible,0,0,0,0,0,0,0,0,0,0,0,0,0,0,0,0
Fans,Arizona Coyotes,NHL,Orange Lake,Orange Lake,Orange Lake,32681,29.423388,-82.20558,0,Native American,convertible,0,0,0,0,0,0,0,0,0,0,0,0,0,0,0,0
Fans,Arizona Coyotes,NHL,Oregon,Oregon,Oregon,43616,41.656948,-83.44433,0,Native American,convertible,0,0,0,0,0,0,0,0,0,0,0,0,0,0,0,0
Fans,Arizona Coyotes,NHL,Oro Valley,Tucson,Tucson,85737,32.414615,-110.946562,0,Native American,convertible,0,0,0,0,0,0,0,0,0,0,0,0,0,0,0,0
Fans,Arizona Coyotes,NHL,Orono,Orono,Orono,4473,44.881679,-68.738649,0,Native American,convertible,0,0,0,0,0,0,0,0,0,0,0,0,0,0,0,0
Fans,Arizona Coyotes,NHL,Owosso charter Township,Owosso,Owosso,48867,42.982578,-84.184937,0,Native American,convertible,0,0,0,0,0,0,0,0,0,0,0,0,1,0,0,0
Fans,Arizona Coyotes,NHL,Paradise Valley,Paradise Valley,Paradise Valley,85253,33.53115,-111.94265,0,Native American,convertible,0,0,0,0,0,0,0,0,0,0,0,0,0,0,0,0
Fans,Arizona Coyotes,NHL,Park Hills,Park Hills,Park Hills,63601,37.849808,-90.488486,0,Native American,convertible,0,0,0,0,0,0,0,0,0,0,0,0,0,0,0,0
Fans,Arizona Coyotes,NHL,Parkville,Parkville,Parkville,21234,39.413106,-76.530044,0,Native American,convertible,0,0,0,0,0,0,0,0,0,0,0,0,0,0,0,0
Fans,Arizona Coyotes,NHL,Peoa,Peoa,Peoa,84061,40.743379,-111.351178,0,Native American,convertible,0,0,0,0,0,0,0,0,0,0,0,0,0,0,0,0
Fans,Arizona Coyotes,NHL,Peoria,Peoria,Peoria,85345,33.573244,-112.245852,65,Native American,avid,0,0,0,0,0,0,0,0,0,0,0,0,0,0,0,0
Fans,Arizona Coyotes,NHL,Pickerington,Pickerington,Pickerington,43147,39.88423,-82.7535,0,Native American,convertible,0,0,0,0,0,0,0,0,0,0,0,0,0,0,0,0
Fans,Arizona Coyotes,NHL,Pinehurst,Pinehurst,Pinehurst,28374,35.211461,-79.413311,0,Native American,convertible,0,0,0,0,0,0,0,0,0,0,0,0,0,0,0,0
Fans,Arizona Coyotes,NHL,Pinetop-Lakeside,Lakeside,Lakeside,85929,34.175198,-109.972598,0,Native American,convertible,0,0,0,0,0,0,0,0,0,0,0,0,0,0,0,0
Fans,Arizona Coyotes,NHL,Plainville,Plainville,Plainville,2762,42.00427,-71.33283,0,Native American,convertible,0,0,0,0,0,0,0,0,0,0,0,0,0,0,0,0
Fans,Arizona Coyotes,NHL,Plover,Plover,Plover,54467,44.413942,-89.565507,0,Native American,convertible,0,0,0,0,0,0,0,0,0,0,0,0,0,0,0,0
Fans,Arizona Coyotes,NHL,Prescott,Prescott,Prescott,86301,34.591349,-112.426312,0,Native American,convertible,0,0,0,0,0,0,0,0,0,0,0,0,0,0,0,0
Fans,Arizona Coyotes,NHL,Prescott Valley,Prescott Valley,Prescott Valley,86314,34.627778,-112.262805,0,Native American,convertible,0,0,0,0,0,0,0,0,0,0,0,0,0,0,0,0
Fans,Arizona Coyotes,NHL,Pullman,Pullman,Pullman,99163,46.730331,-117.218027,0,Native American,convertible,0,0,0,0,0,0,0,0,0,0,0,0,0,0,0,1
Fans,Arizona Coyotes,NHL,Queen Creek,Queen Creek,Queen Creek,85142,33.24866,-111.6343,62,Native American,avid,0,0,0,0,0,0,0,0,0,0,0,0,0,0,0,0
Fans,Arizona Coyotes,NHL,Richland,Richland,Richland,99352,46.28569,-119.28446,0,Native American,convertible,0,0,0,0,0,0,0,0,0,0,0,0,0,0,0,0
Fans,Arizona Coyotes,NHL,Rio Rico,Rio Rico,Rio Rico,85648,31.508436,-111.075695,0,Native American,convertible,0,0,0,0,0,0,0,0,0,0,0,0,0,0,0,0
Fans,Arizona Coyotes,NHL,Rio Verde,Rio Verde,Rio Verde,85263,33.72622,-111.67637,0,Native American,convertible,0,0,0,0,0,0,0,0,0,0,0,0,0,0,0,0
Fans,Arizona Coyotes,NHL,Sacaton,Sacaton,Sacaton,85147,33.07672,-111.7393,0,Native American,convertible,0,0,0,0,0,0,0,0,0,0,0,0,0,0,0,0
Fans,Arizona Coyotes,NHL,Sahuarita,Sahuarita,Sahuarita,85629,31.932883,-110.895188,0,Native American,convertible,0,0,0,0,0,0,0,0,0,0,0,0,0,0,0,0
Fans,Arizona Coyotes,NHL,Saint Michael,Saint Michael,Saint Michael,55376,45.20996,-93.66496,0,Native American,convertible,0,0,0,0,0,0,0,0,0,0,0,0,0,0,0,0
Fans,Arizona Coyotes,NHL,Salem,Salem,Salem,97301,44.94878,-123.003655,0,Native American,convertible,0,0,0,0,0,0,0,0,0,0,0,0,0,0,0,0
Fans,Arizona Coyotes,NHL,San Tan Valley,Queen Creek,Queen Creek,85140,33.32865,-111.583739,61,Native American,avid,0,0,0,0,0,0,0,0,0,0,0,0,0,0,0,0
Fans,Arizona Coyotes,NHL,Sand Springs,Sand Springs,Sand Springs,74063,36.118535,-96.186776,0,Native American,convertible,0,0,0,0,0,0,0,0,0,0,0,0,0,0,0,0
Fans,Arizona Coyotes,NHL,Sandia Park,Sandia Park,Sandia Park,87047,35.152995,-106.311441,0,Native American,convertible,0,0,0,0,0,0,0,0,0,0,0,0,0,0,0,0
Fans,Arizona Coyotes,NHL,Sartell,Sartell,Sartell,56377,45.62163,-94.20694,0,Native American,convertible,0,0,0,0,0,0,0,0,0,0,0,0,0,0,0,0
Fans,Arizona Coyotes,NHL,Scottsdale,Scottsdale,Scottsdale,85250,33.534451,-111.887354,100,Native American,avid,0,0,0,0,0,0,0,0,0,0,0,0,0,0,0,0
Fans,Arizona Coyotes,NHL,Seaford,Seaford,Seaford,19973,38.64123,-75.61104,0,Native American,convertible,0,0,0,0,0,0,0,0,0,0,0,0,0,0,0,0
Fans,Arizona Coyotes,NHL,Seymour,Seymour,Seymour,47274,38.944827,-86.010789,0,Native American,convertible,0,0,0,0,0,0,0,0,0,0,0,0,0,0,0,0
Fans,Arizona Coyotes,NHL,Sharon Hill,Sharon Hill,Sharon Hill,19079,39.901112,-75.267628,0,Native American,convertible,0,0,0,0,0,0,0,0,0,0,0,0,0,0,0,0
Fans,Arizona Coyotes,NHL,Shoreview,Saint Paul,Saint Paul,55126,45.073561,-93.138022,0,Native American,convertible,0,0,0,0,0,0,0,0,0,0,0,0,0,0,0,0
Fans,Arizona Coyotes,NHL,Sierra Vista,Sierra Vista,Sierra Vista,85635,31.571011,-110.170235,0,Native American,convertible,0,0,0,0,0,0,0,0,0,0,0,0,0,0,0,0
Fans,Arizona Coyotes,NHL,South Lyon,South Lyon,South Lyon,48178,42.474564,-83.612188,0,Native American,convertible,0,0,0,0,0,0,0,0,0,0,0,0,0,0,0,0
Fans,Arizona Coyotes,NHL,South Salt Lake,Salt Lake City,Salt Lake City,84115,40.714496,-111.893118,0,Native American,convertible,0,0,0,0,0,0,0,0,0,0,0,0,0,0,0,0
Fans,Arizona Coyotes,NHL,Southington,Southington,Southington,6489,41.604786,-72.871945,0,Native American,convertible,0,0,0,0,0,0,0,0,0,0,0,0,0,0,0,0
Fans,Arizona Coyotes,NHL,Southlake,Southlake,Southlake,76092,32.948474,-97.152368,0,Native American,convertible,0,0,0,0,0,0,0,0,0,0,0,0,0,0,0,0
Fans,Arizona Coyotes,NHL,Springfield Township,Glenside,Glenside,19038,40.101109,-75.17802,0,Native American,convertible,0,0,0,0,0,0,0,0,0,0,0,0,0,0,0,0
Fans,Arizona Coyotes,NHL,Stanley,Stanley,Stanley,28164,35.35903,-81.09702,0,Native American,convertible,0,0,0,0,0,0,0,0,0,0,0,0,0,0,0,0
Fans,Arizona Coyotes,NHL,Steger,Steger,Steger,60475,41.47003,-87.63643,0,Native American,convertible,0,0,0,0,0,0,0,0,0,0,0,0,0,0,0,0
Fans,Arizona Coyotes,NHL,Stockton,Stockton,Stockton,95202,37.958573,-121.289206,0,Native American,convertible,0,0,0,0,0,1,0,0,0,0,0,0,0,0,0,0
Fans,Arizona Coyotes,NHL,Stoneham,Stoneham,Stoneham,2180,42.474595,-71.098146,0,Native American,convertible,0,0,0,0,0,0,0,0,0,0,0,0,0,0,0,0
Fans,Arizona Coyotes,NHL,Stow,Stow,Stow,44224,41.172402,-81.450184,0,Native American,convertible,0,0,0,0,0,0,0,0,0,0,0,0,0,0,0,0
Fans,Arizona Coyotes,NHL,Sun City,Sun City,Sun City,85351,33.606131,-112.284114,44,Native American,avid,0,0,0,0,0,0,0,0,0,0,0,0,0,0,0,0
Fans,Arizona Coyotes,NHL,Sun City West,Sun City West,Sun City West,85375,33.685809,-112.366168,0,Native American,convertible,0,0,0,0,0,0,0,0,0,0,0,0,0,0,0,0
Fans,Arizona Coyotes,NHL,Sun Lakes,Chandler,Chandler,85248,33.250947,-111.859308,48,Native American,avid,0,0,0,0,0,0,0,0,0,0,0,0,0,0,0,0
Fans,Arizona Coyotes,NHL,Surprise,Surprise,Surprise,85374,33.640996,-112.37833,61,Native American,avid,0,0,0,0,0,0,0,0,0,0,0,0,0,0,0,0
Fans,Arizona Coyotes,NHL,Tempe,Tempe,Tempe,85281,33.432844,-111.927219,82,Native American,avid,0,0,0,0,0,0,0,0,0,0,0,0,0,0,0,0
Fans,Arizona Coyotes,NHL,Terrell,Terrell,Terrell,75160,32.758408,-96.301323,0,Native American,convertible,0,0,0,0,0,0,0,0,0,0,0,0,0,0,0,0
Fans,Arizona Coyotes,NHL,Tewksbury,Tewksbury,Tewksbury,1876,42.61065,-71.23422,0,Native American,convertible,0,0,0,0,0,0,0,0,0,0,0,0,0,0,0,0
Fans,Arizona Coyotes,NHL,Texas charter Township,Kalamazoo,Kalamazoo,49009,42.303748,-85.697876,0,Native American,convertible,0,0,0,0,0,0,0,0,0,0,0,0,0,0,0,0
Fans,Arizona Coyotes,NHL,Tolleson,Tolleson,Tolleson,85353,33.45004,-112.25932,0,Native American,convertible,0,0,0,0,0,0,0,0,0,0,0,0,0,0,0,0
Fans,Arizona Coyotes,NHL,Township of Washington,Township Of Washington,Township Of Washington,7676,40.972822,-74.056068,0,Native American,convertible,0,0,0,0,0,0,0,0,0,0,0,0,0,0,0,0
Fans,Arizona Coyotes,NHL,Troy,Troy,Troy,48083,42.555985,-83.119206,0,Native American,convertible,0,0,0,1,0,0,0,0,0,0,0,0,0,0,0,0
Fans,Arizona Coyotes,NHL,Troy,Troy,Troy,48083,42.555985,-83.119206,0,Native American,convertible,0,0,0,1,0,0,0,0,0,0,0,0,0,0,0,0
Fans,Arizona Coyotes,NHL,Tucson,Tucson,Tucson,85701,32.217975,-110.970869,20,Native American,casual,0,0,0,0,0,0,0,0,0,0,0,0,0,0,0,0
Fans,Arizona Coyotes,NHL,Vail,Vail,Vail,85641,32.002669,-110.705269,0,Native American,convertible,0,0,0,0,0,0,0,0,0,0,0,0,0,0,0,0
Fans,Arizona Coyotes,NHL,Valencia West,Tucson,Tucson,85757,32.140339,-111.075481,0,Native American,convertible,0,0,0,0,0,0,0,0,0,0,0,0,0,0,0,0
Fans,Arizona Coyotes,NHL,Vernon Township,Vernon Hills,Vernon Hills,60061,42.231183,-87.962973,0,Native American,convertible,0,0,0,0,0,0,0,0,0,0,0,0,0,0,0,0
Fans,Arizona Coyotes,NHL,Victoria,Victoria,Victoria,77901,28.804947,-96.984711,0,Native American,convertible,0,0,0,0,0,0,0,0,0,0,0,0,0,0,0,0
Fans,Arizona Coyotes,NHL,Villanova,Villanova,Villanova,19085,40.027909,-75.369458,0,Native American,convertible,0,0,0,0,0,0,0,0,0,0,0,0,0,0,0,0
Fans,Arizona Coyotes,NHL,Wailea-Makena,Kihei,Kihei,96753,20.76591,-156.44923,0,Native American,convertible,0,0,0,0,0,0,0,0,0,0,0,0,0,0,0,0
Fans,Arizona Coyotes,NHL,Walkertown,Walkertown,Walkertown,27051,36.191405,-80.16357,0,Native American,convertible,0,0,0,0,0,0,0,0,0,0,0,0,0,0,0,0
Fans,Arizona Coyotes,NHL,Washington,Washington,Washington,20001,38.911936,-77.016719,0,Native American,convertible,0,0,0,0,0,0,0,0,0,0,0,0,0,0,0,0
Fans,Arizona Coyotes,NHL,Weirton,Weirton,Weirton,26062,40.41896,-80.58952,0,Native American,convertible,0,0,0,0,0,0,0,0,0,0,0,0,0,0,0,0
Fans,Arizona Coyotes,NHL,West Babylon,West Babylon,West Babylon,11704,40.709098,-73.356164,0,Native American,convertible,0,0,0,0,0,0,0,0,0,0,0,0,0,0,0,0
Fans,Arizona Coyotes,NHL,Western Springs,Western Springs,Western Springs,60558,41.80975,-87.90062,0,Native American,convertible,0,0,0,0,0,0,0,0,0,0,0,0,0,0,0,0
Fans,Arizona Coyotes,NHL,Westlake,Westlake,Westlake,44145,41.445145,-81.921811,0,Native American,convertible,0,0,0,0,0,0,0,0,0,0,0,0,0,0,0,0
Fans,Arizona Coyotes,NHL,Whitehall,Whitehall,Whitehall,18052,40.656746,-75.504128,0,Native American,convertible,0,0,0,0,0,0,0,0,0,0,0,0,0,0,0,0
Fans,Arizona Coyotes,NHL,Wilbraham,Wilbraham,Wilbraham,1095,42.13408,-72.4345,0,Native American,convertible,0,0,0,0,0,0,0,0,0,0,0,0,0,0,0,0
Fans,Arizona Coyotes,NHL,Wildwood,Wildwood,Wildwood,34785,28.844473,-82.078342,0,Native American,convertible,0,0,0,0,0,0,0,0,0,0,0,0,0,0,0,0
Fans,Arizona Coyotes,NHL,Wilmington,Wilmington,Wilmington,28401,34.271985,-77.963628,0,Native American,convertible,1,0,0,0,0,0,0,0,0,0,0,0,0,0,0,0
Fans,Arizona Coyotes,NHL,Winslow,Winslow,Winslow,86047,35.02419,-110.69736,0,Native American,convertible,0,0,0,0,0,0,0,0,0,0,0,0,0,0,0,0
Fans,Arizona Coyotes,NHL,Wrentham,Wrentham,Wrentham,2093,42.054311,-71.371169,0,Native American,convertible,0,0,0,0,0,0,0,0,0,0,0,0,0,0,0,0
Fans,Arizona Coyotes,NHL,Wye,Dodson,Dodson,59524,48.394962,-108.246539,0,Native American,convertible,0,0,0,0,0,0,0,0,0,0,0,0,0,0,0,0
Fans,Washington Capitals,NHL,Alamance,Alamance,Alamance,27201,36.031836,-79.485643,0,Native American,convertible,0,0,0,0,0,0,0,0,0,0,0,0,0,0,0,0
Fans,Washington Capitals,NHL,Annapolis,Annapolis,Annapolis,21401,38.98775,-76.5528,20,Native American,casual,0,0,0,0,0,0,0,0,0,0,0,0,0,0,0,0
Fans,Washington Capitals,NHL,Arlington,Arlington,Arlington,76001,32.635563,-97.148829,21,Native American,casual,0,0,0,0,0,0,0,0,0,0,0,0,0,0,0,0
Fans,Washington Capitals,NHL,Arnold,Arnold,Arnold,21012,39.04362,-76.49784,22,Native American,casual,0,0,0,0,0,0,0,0,0,0,0,0,0,0,0,0
Fans,Washington Capitals,NHL,Ashburn,Ashburn,Ashburn,20147,39.037339,-77.480542,18,Native American,casual,0,0,0,0,0,0,0,0,0,0,0,0,0,0,0,0
Fans,Washington Capitals,NHL,Ashland,Ashland,Ashland,41101,38.473824,-82.647933,12,Native American,casual,0,0,0,2,0,0,0,0,0,0,0,0,1,0,0,0
Fans,Washington Capitals,NHL,Aspen Hill,Silver Spring,Silver Spring,20906,39.083978,-77.061278,16,Native American,casual,0,0,0,0,0,0,0,0,0,0,0,0,0,0,0,0
Fans,Washington Capitals,NHL,Barnesville,Barnesville,Barnesville,20838,39.22066,-77.37749,0,Native American,convertible,0,0,0,0,0,0,0,0,0,0,0,0,0,0,0,0
Fans,Washington Capitals,NHL,Bel Air,Bel Air,Bel Air,21014,39.547557,-76.321984,9,Native American,casual,0,1,1,0,0,1,0,0,0,3,0,0,0,0,0,0
Fans,Washington Capitals,NHL,Bel Air South,Bel Air,Bel Air,21015,39.551757,-76.298713,22,Native American,casual,0,0,0,0,0,0,1,0,0,1,0,0,0,0,0,0
Fans,Washington Capitals,NHL,Berryville,Berryville,Berryville,22611,39.135711,-77.991926,25,Native American,casual,0,0,0,0,0,0,0,0,0,0,1,0,0,0,0,0
Fans,Washington Capitals,NHL,Bethesda,Bethesda,Bethesda,20814,39.00452,-77.1046,21,Native American,casual,0,0,0,0,0,0,0,0,0,0,0,0,0,0,0,0
Fans,Washington Capitals,NHL,Brambleton,Ashburn,Ashburn,20148,39.014196,-77.528452,10,Native American,casual,0,0,0,0,0,0,0,0,0,0,0,0,0,0,0,0
Fans,Washington Capitals,NHL,Brandywine,Brandywine,Brandywine,20613,38.658807,-76.824293,0,Native American,convertible,0,0,0,0,0,0,0,0,0,0,0,0,0,0,0,0
Fans,Washington Capitals,NHL,Bristow,Bristow,Bristow,20136,38.734255,-77.547383,18,Native American,casual,0,0,0,0,0,0,0,0,0,0,0,0,0,0,0,0
Fans,Washington Capitals,NHL,Bucksport,Bucksport,Bucksport,4416,44.600448,-68.773241,0,Native American,convertible,0,0,0,0,0,0,0,0,0,0,1,2,0,0,0,0
Fans,Washington Capitals,NHL,Bunker Hill,Bunker Hill,Bunker Hill,25413,39.33343,-78.05444,7,Native American,convertible,0,0,0,0,0,0,0,0,0,0,0,0,0,0,0,0
Fans,Washington Capitals,NHL,California,California,California,20619,38.3004,-76.50745,56,Native American,avid,0,0,0,0,0,0,0,0,0,0,0,0,0,0,0,0
Fans,Washington Capitals,NHL,Campbelltown,Campbelltown,Campbelltown,17010,40.277992,-76.582841,27,Native American,casual,0,0,1,0,0,0,1,0,0,1,0,0,0,0,0,0
Fans,Washington Capitals,NHL,Cape Saint Claire,Annapolis,Annapolis,21409,39.018435,-76.442533,19,Native American,casual,0,0,0,0,0,0,0,0,0,0,0,0,0,0,0,0
Fans,Washington Capitals,NHL,Capon Bridge,Capon Bridge,Capon Bridge,26711,39.29816,-78.43612,0,Native American,convertible,0,0,0,0,0,0,0,0,0,0,0,0,0,0,0,0
Fans,Washington Capitals,NHL,Catharpin,Catharpin,Catharpin,20143,38.85428,-77.57194,18,Native American,casual,0,0,0,0,0,0,0,0,0,0,0,0,0,0,0,0
Fans,Washington Capitals,NHL,Cecil-Bishop,Cecil,Cecil,15321,40.323357,-80.187945,0,Native American,convertible,0,0,0,0,0,0,0,0,0,0,0,0,0,0,0,0
Fans,Washington Capitals,NHL,Cedar Grove,Cedar Grove,Cedar Grove,7009,40.857049,-74.227109,0,Native American,convertible,0,0,0,0,0,0,1,0,0,0,0,0,4,0,0,0
Fans,Washington Capitals,NHL,Cedar Springs,Cedar Springs,Cedar Springs,49319,43.175953,-85.514105,0,Native American,convertible,0,0,0,0,0,0,0,0,0,0,0,0,0,0,0,0
Fans,Washington Capitals,NHL,Centreville,Centreville,Centreville,20120,38.84479,-77.46701,19,Native American,casual,0,0,0,0,0,0,0,0,0,0,0,0,0,0,0,0
Fans,Washington Capitals,NHL,Charlotte Hall,Charlotte Hall,Charlotte Hall,20622,38.48096,-76.77802,56,Native American,avid,0,0,0,0,0,0,0,0,0,0,0,0,0,0,0,0
Fans,Washington Capitals,NHL,Chesapeake Beach,Chesapeake Beach,Chesapeake Beach,20732,38.68623,-76.53468,42,Native American,avid,0,0,0,0,0,0,0,0,0,1,0,0,0,0,0,0
Fans,Washington Capitals,NHL,Chesapeake Ranch Estates-Drum Point,Lusby,Lusby,20657,38.36193,-76.4372,33,Native American,casual,0,0,0,0,0,0,0,0,0,0,0,0,0,0,0,0
Fans,Washington Capitals,NHL,Chester,Chester,Chester,23831,37.320744,-77.454311,0,Native American,convertible,0,0,0,0,0,0,0,0,0,0,0,0,0,0,0,0
Fans,Washington Capitals,NHL,Chester,Chester,Chester,23831,37.320744,-77.454311,78,Native American,avid,0,0,0,0,0,0,0,0,0,0,0,0,0,0,0,0
Fans,Washington Capitals,NHL,Chester Gap,Chester Gap,Chester Gap,22623,38.853733,-78.141239,0,Native American,convertible,0,0,0,0,0,0,0,0,0,0,0,0,0,0,1,0
Fans,Washington Capitals,NHL,Chevy Chase,Chevy Chase,Chevy Chase,20815,38.983759,-77.079449,26,Native American,casual,0,0,0,0,0,0,0,0,0,1,0,0,0,0,0,0
Fans,Washington Capitals,NHL,Church Hill,Church Hill,Church Hill,21623,39.1305,-75.961404,0,Native American,convertible,0,0,0,0,0,0,0,0,0,0,0,0,0,0,0,0
Fans,Washington Capitals,NHL,Claypool Hill,Cedar Bluff,Cedar Bluff,24609,37.009747,-81.808041,0,Native American,convertible,0,0,0,0,0,0,0,0,0,0,0,0,0,0,0,0
Fans,Washington Capitals,NHL,Colmar Manor,Brentwood,Brentwood,20722,38.94317,-76.95664,12,Native American,casual,0,0,0,0,0,0,0,0,0,0,0,0,1,0,0,0
Fans,Washington Capitals,NHL,Columbiana,Columbiana,Columbiana,44408,40.88839,-80.69396,0,Native American,convertible,0,1,0,0,0,0,0,0,0,0,0,0,0,0,0,0
Fans,Washington Capitals,NHL,Conestoga,Conestoga,Conestoga,17516,39.94066,-76.34635,0,Native American,convertible,0,0,0,0,0,0,0,0,0,0,0,0,0,0,0,0
Fans,Washington Capitals,NHL,Crofton,Crofton,Crofton,21114,39.00891,-76.68438,31,Native American,casual,0,0,0,0,0,0,0,0,0,0,0,2,2,1,0,0
Fans,Washington Capitals,NHL,Crownsville,Crownsville,Crownsville,21032,39.01811,-76.588272,56,Native American,avid,0,0,0,1,0,0,0,0,0,0,0,0,2,1,0,0
Fans,Washington Capitals,NHL,Daleville,Daleville,Daleville,36322,31.272415,-85.705129,0,Native American,convertible,0,0,0,0,0,0,0,0,0,0,0,0,0,0,0,0
Fans,Washington Capitals,NHL,Dallastown,Dallastown,Dallastown,17313,39.912423,-76.65353,0,Native American,convertible,0,0,0,0,0,0,0,0,0,0,0,0,0,0,0,0
Fans,Washington Capitals,NHL,Damascus,Damascus,Damascus,20872,39.285477,-77.215203,29,Native American,casual,0,0,0,0,0,0,0,0,0,0,0,0,0,0,0,0
Fans,Washington Capitals,NHL,Davidsonville,Davidsonville,Davidsonville,21035,38.92289,-76.6283,32,Native American,casual,0,0,0,0,0,0,0,0,0,0,0,0,0,0,0,0
Fans,Washington Capitals,NHL,Deale,Deale,Deale,20751,38.79301,-76.5428,65,Native American,avid,0,0,0,0,0,1,0,0,0,0,0,0,0,0,0,0
Fans,Washington Capitals,NHL,Denton,Denton,Denton,21629,38.859523,-75.835702,38,Native American,casual,0,0,0,0,0,0,0,0,0,0,0,0,0,0,0,0
Fans,Washington Capitals,NHL,Dundalk,Dundalk,Dundalk,21222,39.2666,-76.49647,17,Native American,casual,0,0,0,0,0,0,0,0,0,0,0,0,0,0,0,0
Fans,Washington Capitals,NHL,Dunkirk,Dunkirk,Dunkirk,20754,38.7156,-76.67297,23,Native American,casual,0,0,0,0,0,0,0,0,0,0,0,0,1,0,0,0
Fans,Washington Capitals,NHL,Dunn Loring,Dunn Loring,Dunn Loring,22027,38.895078,-77.221453,52,Native American,avid,0,0,0,0,0,0,0,0,0,0,0,0,0,0,0,0
Fans,Washington Capitals,NHL,Easton,Easton,Easton,21601,38.800714,-76.051486,26,Native American,casual,0,0,0,0,0,0,0,0,0,0,0,0,0,0,0,0
Fans,Washington Capitals,NHL,Edgewater,Edgewater,Edgewater,21037,38.95706,-76.54996,94,Native American,avid,0,0,0,0,0,0,0,0,0,0,0,0,0,0,0,0
Fans,Washington Capitals,NHL,Elkridge,Elkridge,Elkridge,21075,39.205756,-76.753093,12,Native American,casual,0,0,0,0,0,0,0,0,0,0,0,0,0,0,0,0
Fans,Washington Capitals,NHL,Emmitsburg,Emmitsburg,Emmitsburg,21727,39.675397,-77.336732,0,Native American,convertible,0,0,0,0,0,0,0,0,0,0,0,0,0,0,0,0
Fans,Washington Capitals,NHL,Fairfax Station,Fairfax Station,Fairfax Station,22039,38.759329,-77.311588,25,Native American,casual,0,0,0,0,0,0,0,0,0,0,0,0,0,0,0,0
Fans,Washington Capitals,NHL,Falls Church,Falls Church,Falls Church,22041,38.847972,-77.141481,19,Native American,casual,0,0,0,0,0,0,0,0,0,0,0,1,0,0,0,0
Fans,Washington Capitals,NHL,Fallston,Fallston,Fallston,21047,39.531206,-76.439035,18,Native American,casual,0,0,0,0,0,0,0,0,0,0,0,0,0,0,0,0
Fans,Washington Capitals,NHL,Falmouth,Falmouth,Falmouth,2540,41.57419,-70.628285,27,Native American,casual,0,0,0,0,0,0,0,0,0,1,2,0,1,1,0,0
Fans,Washington Capitals,NHL,Fawn Grove,Fawn Grove,Fawn Grove,17321,39.72788,-76.45191,8,Native American,casual,0,0,0,0,0,0,0,0,0,0,0,6,1,1,0,0
Fans,Washington Capitals,NHL,Ferndale,Ferndale,Ferndale,98248,48.861113,-122.608561,13,Native American,casual,0,0,0,0,0,0,0,0,0,0,0,0,0,1,0,0
Fans,Washington Capitals,NHL,Finksburg,Finksburg,Finksburg,21048,39.499102,-76.910108,28,Native American,casual,0,0,0,0,0,0,0,0,0,0,0,1,0,0,1,0
Fans,Washington Capitals,NHL,Flint Hill,Flint Hill,Flint Hill,22627,38.787434,-78.083739,0,Native American,convertible,0,0,0,0,0,0,0,0,0,0,0,1,0,0,0,0
Fans,Washington Capitals,NHL,Franconia,Alexandria,Alexandria,22310,38.784071,-77.122817,23,Native American,casual,0,0,0,0,0,0,0,0,0,0,0,0,0,0,0,0
Fans,Washington Capitals,NHL,Front Royal,Front Royal,Front Royal,22630,38.928308,-78.174537,17,Native American,casual,0,0,0,0,0,0,0,0,0,0,0,0,0,0,0,0
Fans,Washington Capitals,NHL,Gainesville,Gainesville,Gainesville,32601,29.648993,-82.324515,17,Native American,casual,0,0,0,0,0,0,0,0,0,0,0,0,0,0,0,0
Fans,Washington Capitals,NHL,Glen Rock,Glen Rock,Glen Rock,17327,39.79316,-76.73025,0,Native American,convertible,0,0,0,0,0,0,0,0,0,0,0,2,0,0,0,0
Fans,Washington Capitals,NHL,Glenn Dale,Glenn Dale,Glenn Dale,20769,38.98346,-76.811392,12,Native American,casual,0,2,0,0,0,0,0,0,0,0,0,0,0,0,0,0
Fans,Washington Capitals,NHL,Glenville,Greenville,Greenville,12083,42.424859,-74.026509,0,Native American,convertible,0,0,0,0,0,0,0,0,0,0,0,0,0,0,0,0
Fans,Washington Capitals,NHL,Gloucester Courthouse,Gloucester,Gloucester,23061,37.41259,-76.546416,0,Native American,convertible,0,0,0,0,0,0,0,0,0,0,0,0,0,0,0,0
Fans,Washington Capitals,NHL,Glyndon,Glyndon,Glyndon,21071,39.47649,-76.81581,19,Native American,casual,0,0,0,0,0,0,1,0,0,0,0,0,0,0,0,0
Fans,Washington Capitals,NHL,Golden Beach,Mechanicsville,Mechanicsville,20659,38.4429,-76.74385,46,Native American,avid,0,0,0,0,0,0,0,0,0,0,0,0,0,0,0,0
Fans,Washington Capitals,NHL,Goochland,Goochland,Goochland,23063,37.725416,-77.995,0,Native American,convertible,0,0,0,0,0,0,0,0,0,0,0,0,0,0,0,0
Fans,Washington Capitals,NHL,Grand Rapids,Grand Rapids,Grand Rapids,49503,42.956176,-85.660693,9,Native American,casual,0,0,0,0,0,0,0,0,0,0,0,0,0,0,0,0
Fans,Washington Capitals,NHL,Grasonville,Grasonville,Grasonville,21638,38.95598,-76.19635,23,Native American,casual,0,0,0,0,0,0,0,0,0,0,0,1,0,0,0,1
Fans,Washington Capitals,NHL,Great Mills,Great Mills,Great Mills,20634,38.23679,-76.49718,16,Native American,casual,1,0,0,0,0,1,0,0,0,0,0,0,0,0,0,0
Fans,Washington Capitals,NHL,Greensboro,Greensboro,Greensboro,27401,36.069144,-79.765156,0,Native American,convertible,0,0,0,0,0,0,0,0,1,0,0,0,0,0,0,0
Fans,Washington Capitals,NHL,Groveton,Alexandria,Alexandria,22306,38.756803,-77.09147,13,Native American,casual,0,0,0,0,0,0,0,0,0,0,0,0,0,0,0,0
Fans,Washington Capitals,NHL,Halfway,Williamsport,Williamsport,21795,39.589123,-77.826258,34,Native American,casual,0,0,0,0,0,0,0,0,0,0,0,1,0,1,0,1
Fans,Washington Capitals,NHL,Hampstead,Hampstead,Hampstead,21074,39.614552,-76.864427,27,Native American,casual,0,0,0,0,0,0,0,0,0,0,0,0,0,0,0,0
Fans,Washington Capitals,NHL,Hanover,Hanover,Hanover,21076,39.192885,-76.724137,15,Native American,casual,1,0,0,0,0,0,0,0,0,1,0,0,0,0,1,0
Fans,Washington Capitals,NHL,Harwood,Harwood,Harwood,20776,38.86539,-76.61996,21,Native American,casual,0,0,0,0,0,0,0,0,0,0,1,0,0,0,0,0
Fans,Washington Capitals,NHL,Herndon,Herndon,Herndon,20170,38.983887,-77.367457,21,Native American,casual,0,0,0,0,0,0,0,0,0,0,1,0,0,0,0,0
Fans,Washington Capitals,NHL,Hershey,Hershey,Hershey,17033,40.269748,-76.636357,21,Native American,casual,0,0,0,0,0,0,0,0,0,0,0,0,0,0,0,0
Fans,Washington Capitals,NHL,Highspire,Highspire,Highspire,17034,40.21092,-76.79108,0,Native American,convertible,1,0,0,0,0,0,0,0,0,0,0,0,0,0,0,0
Fans,Washington Capitals,NHL,Hillsmere Shores,Annapolis,Annapolis,21403,38.942123,-76.489628,28,Native American,casual,0,0,1,0,0,0,0,0,0,0,1,0,0,0,0,0
Fans,Washington Capitals,NHL,Hinton,Hinton,Hinton,25951,37.645544,-80.864634,0,Native American,convertible,0,0,0,0,0,0,0,0,0,0,0,0,0,0,0,0
Fans,Washington Capitals,NHL,Hollidaysburg,Hollidaysburg,Hollidaysburg,16648,40.432059,-78.364965,0,Native American,convertible,0,0,0,0,0,0,0,0,0,0,1,0,0,0,0,0
Fans,Washington Capitals,NHL,Hollywood,Hollywood,Hollywood,20636,38.342437,-76.569163,30,Native American,casual,0,0,0,0,0,0,0,0,0,0,1,0,0,0,0,0
Fans,Washington Capitals,NHL,Hughesville,Hughesville,Hughesville,20637,38.520572,-76.781313,100,Native American,avid,0,0,0,0,0,0,0,0,0,0,0,0,0,0,0,0
Fans,Washington Capitals,NHL,Hummelstown,Hummelstown,Hummelstown,17036,40.26537,-76.7083,23,Native American,casual,0,0,0,0,0,0,0,0,1,0,0,0,0,2,0,1
Fans,Washington Capitals,NHL,Huntingtown,Huntingtown,Huntingtown,20639,38.61166,-76.61865,56,Native American,avid,1,0,0,0,0,0,0,1,0,0,0,0,0,0,0,0
Fans,Washington Capitals,NHL,Hurlock,Hurlock,Hurlock,21643,38.643824,-75.863003,0,Native American,convertible,0,0,0,0,0,0,0,0,0,0,0,0,0,0,0,0
Fans,Washington Capitals,NHL,Indian Head,Indian Head,Indian Head,20640,38.60512,-77.17554,17,Native American,casual,0,0,0,0,0,0,0,0,0,0,0,0,0,0,0,0
Fans,Washington Capitals,NHL,Jefferson,Jefferson,Jefferson,21755,39.353688,-77.567142,0,Native American,convertible,0,0,0,0,0,0,0,0,0,0,0,0,0,0,0,0
Fans,Washington Capitals,NHL,Kensington,Kensington,Kensington,20895,39.02703,-77.077539,31,Native American,casual,0,0,0,0,0,0,0,0,0,0,0,0,0,0,0,0
Fans,Washington Capitals,NHL,Kent,Kent,Kent,44240,41.132323,-81.332781,0,Native American,convertible,0,0,0,0,0,0,0,0,0,0,0,0,0,0,0,0
Fans,Washington Capitals,NHL,Keyser,Keyser,Keyser,26726,39.452686,-78.892554,0,Native American,convertible,0,0,0,0,0,0,0,0,0,0,0,0,0,0,0,0
Fans,Washington Capitals,NHL,Knoxville,Knoxville,Knoxville,37902,35.963643,-83.92061,24,Native American,casual,0,0,0,0,0,0,0,0,0,0,0,0,0,0,0,0
Fans,Washington Capitals,NHL,La Plata,La Plata,La Plata,20646,38.513875,-77.01034,20,Native American,casual,0,0,0,0,0,0,0,0,0,0,0,0,0,0,0,0
Fans,Washington Capitals,NHL,Lake Barcroft,Falls Church,Falls Church,22041,38.847972,-77.141481,18,Native American,casual,0,0,0,0,0,0,0,0,0,0,0,1,0,0,0,0
Fans,Washington Capitals,NHL,Lake Ridge,Woodbridge,Woodbridge,22192,38.675952,-77.316344,19,Native American,casual,0,0,0,0,0,0,0,0,0,0,0,0,0,2,0,0
Fans,Washington Capitals,NHL,Lake Shore,Pasadena,Pasadena,21122,39.121745,-76.4953,30,Native American,casual,0,0,0,0,0,0,0,0,0,0,0,0,0,0,0,0
Fans,Washington Capitals,NHL,Lakeside,Sebring,Sebring,33870,27.457947,-81.373012,8,Native American,casual,0,0,0,0,0,0,0,0,0,0,0,0,0,0,0,0
Fans,Washington Capitals,NHL,Lancaster,Lancaster,Lancaster,17601,40.076553,-76.31068,0,Native American,convertible,1,0,0,0,0,0,0,0,0,2,0,0,0,0,0,0
Fans,Washington Capitals,NHL,Laurel,Laurel,Laurel,20707,39.093136,-76.881945,9,Native American,casual,0,0,0,0,0,0,0,0,0,0,0,1,0,0,0,0
Fans,Washington Capitals,NHL,Laytonsville,Gaithersburg,Gaithersburg,20882,39.233512,-77.145781,51,Native American,avid,0,0,0,0,0,0,0,0,0,0,0,0,0,0,0,0
Fans,Washington Capitals,NHL,Leonardtown,Leonardtown,Leonardtown,20650,38.278757,-76.655917,27,Native American,casual,0,0,0,0,0,0,0,0,0,0,0,0,0,0,0,0
Fans,Washington Capitals,NHL,Lincolnia,Alexandria,Alexandria,22312,38.81772,-77.153725,13,Native American,casual,0,0,0,0,0,0,0,0,0,0,0,0,0,0,0,0
Fans,Washington Capitals,NHL,Linganore-Bartonsville,Frederick,Frederick,21701,39.443551,-77.33294,21,Native American,casual,0,0,0,0,0,0,0,0,1,0,0,0,0,0,0,0
Fans,Washington Capitals,NHL,Linthicum Heights,Linthicum Heights,Linthicum Heights,21090,39.20344,-76.66219,18,Native American,casual,0,0,0,0,0,0,0,0,0,0,0,0,0,0,0,0
Fans,Washington Capitals,NHL,Little River,Little River,Little River,29566,33.87853,-78.63938,0,Native American,convertible,0,0,0,0,0,0,0,0,0,0,0,0,0,0,0,0
Fans,Washington Capitals,NHL,Lorton,Lorton,Lorton,22079,38.692865,-77.204031,30,Native American,casual,0,0,0,0,0,0,0,0,0,0,0,0,0,0,0,0
Fans,Washington Capitals,NHL,Manakin-Sabot,Manakin Sabot,Manakin Sabot,23103,37.670979,-77.687491,0,Native American,convertible,0,0,1,0,0,0,0,0,0,0,0,0,0,0,0,0
Fans,Washington Capitals,NHL,Manassas,Manassas,Manassas,20110,38.749207,-77.487762,15,Native American,casual,0,0,2,0,0,0,0,0,0,0,0,0,0,0,0,0
Fans,Washington Capitals,NHL,Manassas Park,Manassas,Manassas,20111,38.784004,-77.469711,33,Native American,casual,0,0,0,0,0,0,0,0,0,0,0,0,0,0,0,0
Fans,Washington Capitals,NHL,Manchester,Manchester,Manchester,17345,40.06315,-76.7183,28,Native American,casual,0,0,0,0,0,0,0,0,0,0,0,0,0,0,0,0
Fans,Washington Capitals,NHL,Maple Lake,Maple Lake,Maple Lake,55358,45.22833,-94.00417,0,Native American,convertible,0,0,0,0,0,0,0,0,0,0,0,0,0,0,0,0
Fans,Washington Capitals,NHL,Marshall,Marshall,Marshall,62441,39.39143,-87.69364,72,Native American,avid,0,0,0,0,0,0,0,0,0,0,0,0,0,0,0,0
Fans,Washington Capitals,NHL,Martinsburg,Martinsburg,Martinsburg,25401,39.456903,-77.972754,18,Native American,casual,0,0,0,0,0,0,0,0,0,0,0,0,0,0,0,0
Fans,Washington Capitals,NHL,Massanutten,Mc Gaheysville,Mc Gaheysville,22840,38.400968,-78.734456,0,Native American,convertible,0,0,0,0,0,0,0,0,0,0,0,0,0,0,0,0
Fans,Washington Capitals,NHL,McKean,Mc Kean,Mc Kean,16426,41.960056,-80.14089,0,Native American,convertible,0,0,0,0,0,0,0,0,0,0,0,0,0,0,0,0
Fans,Washington Capitals,NHL,Mechanicsville,Mechanicsville,Mechanicsville,20659,38.4429,-76.74385,38,Native American,casual,0,0,0,0,0,0,0,0,0,0,0,0,0,0,0,0
Fans,Washington Capitals,NHL,Merrifield,Fairfax,Fairfax,22031,38.859531,-77.258547,17,Native American,casual,0,0,0,0,0,0,0,0,0,0,0,0,0,0,0,0
Fans,Washington Capitals,NHL,Middletown,Middletown,Middletown,21769,39.44371,-77.54471,0,Native American,convertible,0,0,0,0,0,0,0,0,0,0,0,0,0,0,0,0
Fans,Washington Capitals,NHL,Millville,Millville,Millville,8332,39.370401,-75.04282,25,Native American,casual,0,0,0,0,0,0,0,0,0,0,0,0,0,0,0,0
Fans,Washington Capitals,NHL,Millwood,Millwood,Millwood,22646,39.072518,-78.050929,19,Native American,casual,0,0,0,0,0,0,0,0,0,0,0,0,0,0,0,0
Fans,Washington Capitals,NHL,Mitchellville,Bowie,Bowie,20721,38.919357,-76.787141,17,Native American,casual,0,0,0,0,0,0,0,0,0,0,0,0,0,0,1,0
Fans,Washington Capitals,NHL,Moosic,Moosic,Moosic,18507,41.35341,-75.73825,0,Native American,convertible,0,0,0,0,0,0,0,0,0,0,0,0,0,0,0,0
Fans,Washington Capitals,NHL,Mount Airy,Mount Airy,Mount Airy,21771,39.407252,-77.214087,19,Native American,casual,0,0,0,0,0,0,0,0,0,0,0,0,0,0,0,0
Fans,Washington Capitals,NHL,Mount Carmel,Mount Carmel,Mount Carmel,17851,40.803636,-76.428612,0,Native American,convertible,0,0,0,0,0,0,0,0,0,0,0,0,0,0,0,0
Fans,Washington Capitals,NHL,New Bloomfield,New Bloomfield,New Bloomfield,17068,40.405796,-77.134043,0,Native American,convertible,0,0,1,0,0,0,0,0,0,0,0,0,0,0,0,0
Fans,Washington Capitals,NHL,New Cumberland,New Cumberland,New Cumberland,17070,40.23231,-76.8847,6,Native American,convertible,0,0,0,0,0,0,0,0,0,0,0,0,0,0,0,0
Fans,Washington Capitals,NHL,New Market,New Market,New Market,21774,39.3826,-77.26943,0,Native American,convertible,0,0,0,0,0,0,0,0,0,0,0,0,0,0,0,0
Fans,Washington Capitals,NHL,New Windsor,New Windsor,New Windsor,21776,39.521886,-77.093303,21,Native American,casual,0,0,0,0,0,0,0,0,0,0,0,0,0,0,0,0
Fans,Washington Capitals,NHL,Newville,Newville,Newville,17241,40.173093,-77.421905,0,Native American,convertible,0,0,0,0,0,0,0,0,0,0,0,0,0,0,0,0
Fans,Washington Capitals,NHL,North Bethesda,Rockville,Rockville,20852,39.052158,-77.121096,29,Native American,casual,0,0,0,0,0,0,0,0,0,0,0,0,0,0,0,0
Fans,Washington Capitals,NHL,North Hills,Glenside,Glenside,19038,40.101109,-75.17802,0,Native American,convertible,0,0,0,0,0,0,0,0,0,0,0,0,0,0,0,0
Fans,Washington Capitals,NHL,North Myrtle Beach,North Myrtle Beach,North Myrtle Beach,29582,33.838529,-78.660551,0,Native American,convertible,0,0,0,0,0,0,0,0,0,0,0,0,0,0,0,0
Fans,Washington Capitals,NHL,North Springfield,Springfield,Springfield,22151,38.802858,-77.211556,16,Native American,casual,0,0,0,0,0,0,0,0,0,0,0,0,0,0,0,0
Fans,Washington Capitals,NHL,Oakton,Oakton,Oakton,22124,38.892796,-77.329906,19,Native American,casual,0,0,0,0,0,0,0,0,0,2,0,0,0,0,0,0
Fans,Washington Capitals,NHL,Ocean Pines,Berlin,Berlin,21811,38.310447,-75.320901,40,Native American,avid,0,0,0,0,0,0,0,0,0,0,0,0,0,0,0,0
Fans,Washington Capitals,NHL,Odenton,Odenton,Odenton,21113,39.0625,-76.69547,25,Native American,casual,0,0,0,0,0,0,0,0,0,0,0,0,0,0,0,0
Fans,Washington Capitals,NHL,Olney,Olney,Olney,20832,39.150364,-77.077651,24,Native American,casual,0,0,0,0,0,0,0,0,0,0,0,0,0,0,0,0
Fans,Washington Capitals,NHL,Parole,Annapolis,Annapolis,21401,38.98775,-76.5528,19,Native American,casual,0,0,0,0,0,0,0,0,0,0,0,0,0,0,0,0
Fans,Washington Capitals,NHL,Pasadena,Pasadena,Pasadena,21122,39.121745,-76.4953,20,Native American,casual,0,0,0,0,0,0,0,0,0,0,0,0,0,0,0,0
Fans,Washington Capitals,NHL,Pimmit Hills,Falls Church,Falls Church,22043,38.900733,-77.197334,41,Native American,avid,0,0,0,0,0,0,0,0,0,0,0,0,0,0,0,0
Fans,Washington Capitals,NHL,Plantation,Fort Lauderdale,Fort Lauderdale,33313,26.148662,-80.207519,0,Native American,convertible,0,0,0,0,0,0,0,0,0,0,0,0,0,0,0,0
Fans,Washington Capitals,NHL,Point of Rocks,Point Of Rocks,Point Of Rocks,21777,39.27777,-77.532068,0,Native American,convertible,0,0,0,0,0,0,0,0,0,0,0,0,0,0,0,0
Fans,Washington Capitals,NHL,Poolesville,Poolesville,Poolesville,20837,39.123705,-77.403211,10,Native American,casual,0,0,0,0,0,0,0,0,0,0,0,0,0,0,0,0
Fans,Washington Capitals,NHL,Potomac,Potomac,Potomac,20854,39.029839,-77.234792,27,Native American,casual,0,0,0,0,0,0,0,0,0,0,0,0,0,0,0,0
Fans,Washington Capitals,NHL,Powhatan,Powhatan,Powhatan,23139,37.541609,-77.928759,14,Native American,casual,0,0,0,1,0,0,0,0,0,0,0,0,0,0,0,0
Fans,Washington Capitals,NHL,Prince Frederick,Prince Frederick,Prince Frederick,20678,38.54571,-76.58949,50,Native American,avid,0,0,0,0,0,0,0,0,0,0,0,0,0,0,0,0
Fans,Washington Capitals,NHL,Purcellville,Purcellville,Purcellville,20132,39.143614,-77.734232,41,Native American,avid,0,0,0,0,0,0,0,0,0,0,0,0,0,0,0,0
Fans,Washington Capitals,NHL,Ranson,Ranson,Ranson,25438,39.2951,-77.86055,15,Native American,casual,0,0,0,0,0,0,0,0,0,0,0,0,0,0,0,0
Fans,Washington Capitals,NHL,Ridgely,Ridgely,Ridgely,21660,38.956135,-75.889093,12,Native American,casual,0,0,0,0,0,0,0,0,0,0,0,0,0,0,0,0
Fans,Washington Capitals,NHL,Ringwood,Ringwood,Ringwood,7456,41.110445,-74.293271,0,Native American,convertible,0,0,0,0,0,0,0,0,0,0,0,0,0,0,0,0
Fans,Washington Capitals,NHL,Riva,Riva,Riva,21140,38.94472,-76.5876,44,Native American,avid,0,0,0,0,0,0,0,0,0,0,0,0,0,0,0,0
Fans,Washington Capitals,NHL,Robinwood,Keymar,Keymar,21757,39.619399,-77.252657,26,Native American,casual,0,0,0,0,0,0,0,0,0,0,0,0,0,0,0,0
Fans,Washington Capitals,NHL,Rohrersville,Rohrersville,Rohrersville,21779,39.430227,-77.66013,43,Native American,avid,0,0,0,0,0,0,0,0,0,0,0,2,1,0,0,0
Fans,Washington Capitals,NHL,Rose Hill,Alexandria,Alexandria,22310,38.784071,-77.122817,16,Native American,casual,0,0,0,0,0,0,0,0,0,0,0,0,0,0,0,0
Fans,Washington Capitals,NHL,Saint Charles,Waldorf,Waldorf,20602,38.583394,-76.894551,17,Native American,casual,0,0,0,0,0,0,0,0,0,0,0,0,0,0,0,0
Fans,Washington Capitals,NHL,Saint Leonard,Saint Leonard,Saint Leonard,20685,38.440484,-76.51736,53,Native American,avid,0,0,0,0,0,0,0,0,0,0,2,0,0,0,0,0
Fans,Washington Capitals,NHL,Salunga-Landisville,Landisville,Landisville,17538,40.09537,-76.40996,20,Native American,casual,0,0,0,0,0,0,0,0,0,0,0,0,0,0,0,0
Fans,Washington Capitals,NHL,Selby-on-the-Bay,Shady Side,Shady Side,20764,38.82793,-76.52306,56,Native American,avid,0,0,0,0,0,0,0,0,0,0,0,0,0,0,0,0
Fans,Washington Capitals,NHL,Severna Park,Severna Park,Severna Park,21146,39.08337,-76.57197,24,Native American,casual,0,0,0,0,0,0,0,0,0,0,0,0,0,0,0,0
Fans,Washington Capitals,NHL,Shady Side,Shady Side,Shady Side,20764,38.82793,-76.52306,22,Native American,casual,0,0,0,0,0,0,0,0,0,0,0,0,0,0,0,0
Fans,Washington Capitals,NHL,Silver Spring,Silver Spring,Silver Spring,20901,39.036289,-77.010948,15,Native American,casual,0,0,0,0,0,0,0,0,0,0,0,0,0,0,0,0
Fans,Washington Capitals,NHL,Skyline View,Harrisburg,Harrisburg,17112,40.344295,-76.790248,70,Native American,avid,0,0,0,0,0,0,0,0,0,0,0,0,0,0,0,0
Fans,Washington Capitals,NHL,Snow Hill,Snow Hill,Snow Hill,21863,38.217824,-75.326618,0,Native American,convertible,0,0,0,0,0,0,0,0,0,0,0,0,0,0,0,0
Fans,Washington Capitals,NHL,Snowshoe,Snowshoe,Snowshoe,26209,38.428758,-79.988943,0,Native American,convertible,0,0,0,0,0,0,0,0,0,0,0,0,0,0,0,0
Fans,Washington Capitals,NHL,Solomons,Solomons,Solomons,20688,38.33687,-76.46181,0,Native American,convertible,0,0,0,0,0,0,0,0,0,0,0,0,0,0,0,0
Fans,Washington Capitals,NHL,Sperryville,Sperryville,Sperryville,22740,38.612785,-78.227578,0,Native American,convertible,0,0,0,0,0,0,0,0,0,0,0,0,0,0,0,0
Fans,Washington Capitals,NHL,Spotsylvania Courthouse,Spotsylvania,Spotsylvania,22553,38.20096,-77.58915,18,Native American,casual,0,0,0,0,0,0,0,0,0,0,0,0,0,0,0,0
Fans,Washington Capitals,NHL,Steelton,Harrisburg,Harrisburg,17113,40.23904,-76.841644,0,Native American,convertible,0,0,0,0,0,0,0,0,0,0,0,0,0,0,0,0
Fans,Washington Capitals,NHL,Stephens City,Stephens City,Stephens City,22655,39.08344,-78.21806,7,Native American,convertible,0,0,0,0,0,0,0,0,0,0,0,0,0,0,0,0
Fans,Washington Capitals,NHL,Stevensville,Stevensville,Stevensville,21666,38.97514,-76.31706,11,Native American,casual,0,0,0,0,0,0,0,0,0,0,0,0,0,0,0,0
Fans,Washington Capitals,NHL,Sudley,Manassas,Manassas,20109,38.793641,-77.531024,18,Native American,casual,0,0,0,0,0,0,0,0,0,0,0,0,0,0,1,0
Fans,Washington Capitals,NHL,Thurmont,Thurmont,Thurmont,21788,39.610876,-77.398931,43,Native American,avid,0,0,0,0,0,0,0,0,0,0,0,0,0,0,0,0
Fans,Washington Capitals,NHL,Timberville,Timberville,Timberville,22853,38.63976,-78.781566,0,Native American,convertible,0,0,0,0,0,0,0,0,0,0,0,0,0,0,0,0
Fans,Washington Capitals,NHL,Travilah,Potomac,Potomac,20854,39.029839,-77.234792,31,Native American,casual,0,0,0,0,0,0,0,0,0,0,0,0,0,0,0,0
Fans,Washington Capitals,NHL,Two Harbors,Two Harbors,Two Harbors,55616,47.134891,-91.545363,0,Native American,convertible,0,0,0,0,0,0,0,0,0,0,0,0,0,0,0,0
Fans,Washington Capitals,NHL,Valley Falls,Wallback,Wallback,25285,38.539646,-81.10154,0,Native American,convertible,0,0,1,0,0,0,0,0,0,0,0,0,0,0,0,0
Fans,Washington Capitals,NHL,Walker Mill,Capitol Heights,Capitol Heights,20743,38.889711,-76.892544,11,Native American,casual,0,0,0,0,0,1,0,0,0,0,0,0,0,0,0,0
Fans,Washington Capitals,NHL,Warrenton,Warrenton,Warrenton,20186,38.689832,-77.836115,29,Native American,casual,0,0,0,0,0,0,0,0,0,0,0,0,0,0,0,0
Fans,Washington Capitals,NHL,Waterford,Waterford,Waterford,20197,39.188205,-77.630013,23,Native American,casual,0,0,0,0,0,0,0,0,0,0,0,0,0,0,0,0
Fans,Washington Capitals,NHL,West Gate,Manassas,Manassas,20109,38.793641,-77.531024,14,Native American,casual,0,0,0,0,0,0,0,0,0,0,0,0,0,0,1,0
Fans,Washington Capitals,NHL,West Pocomoke,Pocomoke City,Pocomoke City,21851,38.089201,-75.537185,0,Native American,convertible,0,0,0,0,0,0,0,0,0,0,0,0,0,0,0,0
Fans,Washington Capitals,NHL,West Point,West Point,West Point,10996,41.3937,-73.972175,0,Native American,convertible,0,0,0,0,0,0,0,0,0,0,0,0,0,0,0,0
Fans,Washington Capitals,NHL,West Springfield,Springfield,Springfield,22152,38.775687,-77.233746,18,Native American,casual,0,0,0,0,0,0,0,0,0,0,0,0,0,0,0,0
Fans,Washington Capitals,NHL,Westminster,Westminster,Westminster,21157,39.564201,-76.980701,19,Native American,casual,0,0,0,0,0,0,0,0,0,0,0,0,0,0,0,0
Fans,Washington Capitals,NHL,White Marsh,White Marsh,White Marsh,21162,39.389457,-76.411976,19,Native American,casual,0,0,0,0,0,0,0,0,0,0,0,0,0,0,0,0
Fans,Washington Capitals,NHL,White Plains,White Plains,White Plains,20695,38.59744,-76.990278,0,Native American,convertible,0,0,0,0,0,0,0,0,0,0,0,0,0,0,0,0
Fans,Washington Capitals,NHL,Winchester,Winchester,Winchester,22601,39.169668,-78.16856,15,Native American,casual,0,0,0,0,0,0,0,0,0,0,0,0,0,0,0,0
Fans,Washington Capitals,NHL,Wolf Trap,Vienna,Vienna,22182,38.935292,-77.268022,15,Native American,casual,0,0,0,0,2,0,0,0,0,0,0,0,0,0,0,0
Fans,Washington Capitals,NHL,Woodsboro,Woodsboro,Woodsboro,21798,39.53316,-77.31471,54,Native American,avid,2,0,0,0,0,0,0,0,0,0,0,0,0,0,0,0
Fans,Washington Capitals,NHL,Yorkshire,Manassas,Manassas,20111,38.784004,-77.469711,13,Native American,casual,0,0,0,0,0,0,0,0,0,0,0,0,0,0,0,0
Fans,Buffalo Sabres,NHL,Akron,Akron,Akron,44301,41.04349,-81.524017,64,Native American,avid,0,0,0,0,0,0,0,0,0,0,0,0,0,0,0,0
Fans,Buffalo Sabres,NHL,Albion,Albion,Albion,49224,42.2906,-84.792885,25,Native American,casual,0,0,0,0,0,0,0,0,0,0,0,0,0,0,0,0
Fans,Buffalo Sabres,NHL,Alden,Alden,Alden,14004,42.872937,-78.528446,62,Native American,avid,0,0,0,0,0,0,0,0,0,0,0,0,0,0,0,0
Fans,Buffalo Sabres,NHL,Alexander,Alexander,Alexander,14005,42.917622,-78.264873,0,Native American,convertible,0,0,0,0,0,0,0,0,0,0,0,0,0,0,0,0
Fans,Buffalo Sabres,NHL,Alfred,Alfred,Alfred,14802,42.25424,-77.79055,0,Native American,convertible,0,0,0,0,0,0,0,0,0,0,0,0,0,0,0,0
Fans,Buffalo Sabres,NHL,Allegany,Allegany,Allegany,14706,42.116168,-78.516218,24,Native American,casual,0,0,0,0,0,0,0,0,0,0,0,0,0,0,0,0
Fans,Buffalo Sabres,NHL,Angelica,Angelica,Angelica,14709,42.30673,-78.01584,0,Native American,convertible,0,0,0,0,0,0,0,0,0,0,0,0,0,0,0,0
Fans,Buffalo Sabres,NHL,Angola,Angola,Angola,14006,42.63839,-79.02782,68,Native American,avid,0,0,0,0,0,0,0,0,0,0,0,0,0,0,0,0
Fans,Buffalo Sabres,NHL,Angola on the Lake,Angola,Angola,14006,42.63839,-79.02782,58,Native American,avid,0,0,0,0,0,0,0,0,0,0,0,0,0,0,0,0
Fans,Buffalo Sabres,NHL,Arcade,Arcade,Arcade,14009,42.597171,-78.37463,32,Native American,casual,0,0,0,0,0,0,0,0,0,0,0,0,0,0,0,0
Fans,Buffalo Sabres,NHL,Attica,Attica,Attica,14011,42.86423,-78.28029,39,Native American,casual,0,0,0,0,0,0,0,0,0,0,0,0,0,0,0,0
Fans,Buffalo Sabres,NHL,Auburn,Auburn,Auburn,98001,47.309496,-122.264469,0,Native American,convertible,0,0,0,0,0,0,0,0,0,0,0,0,0,0,0,0
Fans,Buffalo Sabres,NHL,Avon,Avon,Avon,14414,42.895631,-77.735104,23,Native American,casual,0,0,0,0,0,0,0,0,0,0,0,0,0,0,0,0
Fans,Buffalo Sabres,NHL,Bad Axe,Bad Axe,Bad Axe,48413,43.79455,-82.949138,0,Native American,convertible,0,0,0,0,0,0,0,0,0,0,0,0,0,0,0,0
Fans,Buffalo Sabres,NHL,Barker,Barker,Barker,14012,43.327031,-78.534963,0,Native American,convertible,0,0,0,0,0,0,0,0,0,0,0,0,0,0,0,0
Fans,Buffalo Sabres,NHL,Batavia,Batavia,Batavia,14020,42.980544,-78.231764,36,Native American,casual,0,0,0,0,0,0,0,0,0,0,0,0,0,0,0,0
Fans,Buffalo Sabres,NHL,Belfast,Belfast,Belfast,4915,44.404619,-69.040297,0,Native American,convertible,0,0,0,0,0,0,0,0,1,0,0,0,0,0,0,0
Fans,Buffalo Sabres,NHL,Bemus Point,Bemus Point,Bemus Point,14712,42.16172,-79.39171,0,Native American,convertible,0,0,0,0,0,0,0,0,0,0,0,0,0,0,0,0
Fans,Buffalo Sabres,NHL,Bergen,Bergen,Bergen,14416,43.073792,-78.019684,0,Native American,convertible,0,0,0,0,0,0,0,0,0,0,0,0,0,0,0,0
Fans,Buffalo Sabres,NHL,Billington Heights,Buffalo,Buffalo,14221,42.968507,-78.749153,77,Native American,avid,0,0,0,0,0,0,0,0,0,0,0,0,0,0,0,0
Fans,Buffalo Sabres,NHL,Blasdell,Buffalo,Buffalo,14219,42.786308,-78.826444,67,Native American,avid,0,0,0,0,0,0,0,0,0,0,0,0,0,0,0,0
Fans,Buffalo Sabres,NHL,Bliss,Bliss,Bliss,14024,42.590046,-78.246616,0,Native American,convertible,0,0,0,0,0,0,0,0,0,0,0,0,0,0,0,0
Fans,Buffalo Sabres,NHL,Bradford,Bradford,Bradford,16701,41.9559,-78.64392,13,Native American,casual,0,0,0,0,0,0,0,0,0,0,0,0,0,0,0,0
Fans,Buffalo Sabres,NHL,Brasher Falls-Winthrop,Brasher Falls,Brasher Falls,13613,44.80755,-74.7738,0,Native American,convertible,0,0,0,0,0,0,0,0,0,0,0,0,0,0,0,0
Fans,Buffalo Sabres,NHL,Bridgeport,Bridgeport,Bridgeport,13030,43.165372,-75.993896,0,Native American,convertible,0,0,1,0,0,0,0,0,0,0,0,1,0,0,0,0
Fans,Buffalo Sabres,NHL,Brighton,Brighton,Brighton,2135,42.3501,-71.15644,7,Native American,convertible,0,0,0,0,0,0,0,0,0,0,0,0,0,0,0,0
Fans,Buffalo Sabres,NHL,Brockport,Brockport,Brockport,14420,43.223303,-77.917335,17,Native American,casual,0,0,0,0,0,0,0,0,0,0,0,0,0,0,0,0
Fans,Buffalo Sabres,NHL,Brocton,Brocton,Brocton,14716,42.38867,-79.44116,34,Native American,casual,0,0,0,0,0,0,0,0,0,0,0,0,0,0,0,0
Fans,Buffalo Sabres,NHL,Brookhaven,Brookhaven,Brookhaven,11719,40.7793,-72.91213,0,Native American,convertible,0,0,0,0,0,0,0,0,0,0,0,0,0,0,0,0
Fans,Buffalo Sabres,NHL,Bryantown,Bryantown,Bryantown,20617,38.536256,-76.853752,0,Native American,convertible,0,0,0,0,0,0,0,0,0,0,0,0,0,0,0,0
Fans,Buffalo Sabres,NHL,Buffalo,Buffalo,Buffalo,14201,42.89606,-78.886424,37,Native American,casual,0,0,0,0,0,0,0,0,0,0,0,0,0,0,0,0
Fans,Buffalo Sabres,NHL,Butler,Butler,Butler,16001,40.885861,-79.934048,0,Native American,convertible,0,0,0,0,0,0,0,0,0,0,0,0,0,0,0,0
Fans,Buffalo Sabres,NHL,Byron,Byron,Byron,14422,43.073142,-78.056938,28,Native American,casual,0,0,0,0,0,0,0,0,0,0,0,0,0,0,0,0
Fans,Buffalo Sabres,NHL,Caledonia,Caledonia,Caledonia,14423,42.935329,-77.838998,0,Native American,convertible,0,0,0,0,0,0,0,0,0,0,0,0,0,0,0,0
Fans,Buffalo Sabres,NHL,Camillus,Camillus,Camillus,13031,43.049756,-76.348012,0,Native American,convertible,0,0,0,0,0,0,0,0,0,0,0,0,0,0,0,0
Fans,Buffalo Sabres,NHL,Canandaigua,Canandaigua,Canandaigua,14424,42.813576,-77.289687,16,Native American,casual,0,0,0,0,0,0,0,0,0,0,0,0,0,0,0,0
Fans,Buffalo Sabres,NHL,Cassadaga,Cassadaga,Cassadaga,14718,42.34422,-79.30949,0,Native American,convertible,0,0,0,0,0,0,0,0,0,0,0,0,0,0,0,0
Fans,Buffalo Sabres,NHL,Cheektowaga,Buffalo,Buffalo,14225,42.925458,-78.748145,53,Native American,avid,0,0,0,0,0,0,0,0,0,0,0,0,0,0,0,0
Fans,Buffalo Sabres,NHL,Chester,Chester,Chester,23831,37.320744,-77.454311,0,Native American,convertible,0,0,0,0,0,0,0,0,0,0,0,0,0,0,0,0
Fans,Buffalo Sabres,NHL,Churchville,Churchville,Churchville,14428,43.074911,-77.835003,21,Native American,casual,0,0,0,0,0,0,0,0,0,0,0,0,0,0,0,0
Fans,Buffalo Sabres,NHL,Clarence Center,Clarence Center,Clarence Center,14032,43.00842,-78.63081,69,Native American,avid,0,0,0,0,0,1,0,0,0,0,0,0,0,1,0,0
Fans,Buffalo Sabres,NHL,Clay,Clay,Clay,13041,43.1859,-76.17243,0,Native American,convertible,0,0,0,0,0,0,0,0,0,0,0,0,0,0,0,0
Fans,Buffalo Sabres,NHL,Clayton,Clayton,Clayton,13624,44.144238,-76.062002,0,Native American,convertible,0,0,0,0,0,0,0,0,0,0,0,0,0,0,0,0
Fans,Buffalo Sabres,NHL,Clifton Springs,Clifton Springs,Clifton Springs,14432,42.962932,-77.150097,0,Native American,convertible,0,0,0,0,0,0,0,0,0,0,0,0,0,0,0,0
Fans,Buffalo Sabres,NHL,Clinton,Clinton,Clinton,13323,43.036697,-75.382414,0,Native American,convertible,0,0,0,0,0,0,0,0,0,0,0,0,0,0,0,0
Fans,Buffalo Sabres,NHL,Clyde,Clyde,Clyde,14433,43.097869,-76.872736,0,Native American,convertible,0,0,0,0,0,1,0,0,0,0,1,0,0,0,0,0
Fans,Buffalo Sabres,NHL,Collins,Collins,Collins,14034,42.49645,-78.92059,64,Native American,avid,0,0,1,0,0,0,0,0,0,0,0,0,0,0,0,0
Fans,Buffalo Sabres,NHL,Corfu,Corfu,Corfu,14036,42.978522,-78.372338,46,Native American,avid,0,0,0,0,0,0,0,0,0,0,0,0,0,0,0,0
Fans,Buffalo Sabres,NHL,Corning,Corning,Corning,14830,42.120541,-77.048462,5,Native American,convertible,0,0,0,0,0,0,0,0,0,0,0,0,0,0,0,0
Fans,Buffalo Sabres,NHL,Cortez,Cortez,Cortez,81321,37.373594,-108.662826,0,Native American,convertible,1,0,0,0,0,0,0,0,0,0,0,0,1,0,0,0
Fans,Buffalo Sabres,NHL,Cuba,Cuba,Cuba,14727,42.21757,-78.27529,34,Native American,casual,0,0,0,0,0,0,0,0,0,0,0,0,0,0,0,0
Fans,Buffalo Sabres,NHL,Delevan,Delevan,Delevan,14042,42.473934,-78.494065,0,Native American,convertible,0,0,0,0,0,0,0,0,0,0,0,0,0,0,0,0
Fans,Buffalo Sabres,NHL,Depew,Depew,Depew,14043,42.898958,-78.707872,70,Native American,avid,0,0,0,0,0,0,0,0,0,0,0,0,0,0,0,0
Fans,Buffalo Sabres,NHL,Derby,Derby,Derby,14047,42.683522,-78.995736,100,Native American,avid,0,0,0,0,0,0,0,0,0,0,0,0,0,0,0,0
Fans,Buffalo Sabres,NHL,Ducktown,Ducktown,Ducktown,37326,35.033927,-84.379169,0,Native American,convertible,0,0,0,0,0,0,0,0,0,0,0,0,0,0,0,0
Fans,Buffalo Sabres,NHL,Dundee,Dundee,Dundee,14837,42.555387,-77.014409,0,Native American,convertible,0,0,0,0,0,0,0,0,0,0,0,0,0,0,0,0
Fans,Buffalo Sabres,NHL,Dunkirk,Dunkirk,Dunkirk,20754,38.7156,-76.67297,35,Native American,casual,0,0,0,0,0,0,0,0,0,0,0,0,1,0,0,0
Fans,Buffalo Sabres,NHL,East Amherst,East Amherst,East Amherst,14051,43.042907,-78.698796,58,Native American,avid,0,0,0,0,0,0,0,0,0,0,0,0,0,0,0,0
Fans,Buffalo Sabres,NHL,East Aurora,East Aurora,East Aurora,14052,42.768209,-78.577136,76,Native American,avid,0,0,0,0,0,0,0,0,0,0,0,0,0,0,0,0
Fans,Buffalo Sabres,NHL,Eden,Eden,Eden,14057,42.641429,-78.875456,70,Native American,avid,0,0,0,0,0,0,0,0,0,0,0,0,0,0,0,0
Fans,Buffalo Sabres,NHL,Elberta,Elberta,Elberta,36530,30.412773,-87.549041,0,Native American,convertible,0,0,0,0,0,0,0,0,0,0,0,0,0,0,0,0
Fans,Buffalo Sabres,NHL,Ellicottville,Ellicottville,Ellicottville,14731,42.297229,-78.649654,46,Native American,avid,0,0,0,0,0,0,0,0,0,0,0,0,0,0,0,0
Fans,Buffalo Sabres,NHL,Elma,Elma,Elma,14059,42.828309,-78.628966,66,Native American,avid,0,0,0,0,0,0,0,0,0,0,0,0,0,0,0,0
Fans,Buffalo Sabres,NHL,Elma Center,Elma,Elma,14059,42.828309,-78.628966,70,Native American,avid,0,0,0,0,0,0,0,0,0,0,0,0,0,0,0,0
Fans,Buffalo Sabres,NHL,Fairport,Fairport,Fairport,14450,43.104287,-77.428964,16,Native American,casual,0,0,0,0,0,0,0,0,0,0,0,0,0,0,0,0
Fans,Buffalo Sabres,NHL,Falconer,Falconer,Falconer,14733,42.126604,-79.182837,28,Native American,casual,0,0,0,0,0,0,0,0,0,0,0,0,0,0,0,0
Fans,Buffalo Sabres,NHL,Falls City,Falls City,Falls City,68355,40.073908,-95.602053,0,Native American,convertible,0,0,0,0,0,0,0,0,0,0,0,0,0,0,0,0
Fans,Buffalo Sabres,NHL,Fancy Gap,Fancy Gap,Fancy Gap,24328,36.667972,-80.675229,0,Native American,convertible,0,0,0,0,0,0,0,0,0,0,0,0,0,0,0,0
Fans,Buffalo Sabres,NHL,Fillmore,Fillmore,Fillmore,14735,42.45079,-78.104285,0,Native American,convertible,0,0,0,0,0,0,0,0,0,0,0,0,0,0,0,0
Fans,Buffalo Sabres,NHL,Franklinville,Franklinville,Franklinville,14737,42.335753,-78.491244,0,Native American,convertible,0,0,0,0,0,0,0,0,0,0,0,0,0,0,0,0
Fans,Buffalo Sabres,NHL,Fredonia,Fredonia,Fredonia,14063,42.412217,-79.319254,26,Native American,casual,0,0,0,0,0,0,0,0,0,0,0,0,0,0,0,0
Fans,Buffalo Sabres,NHL,Fulton,Fulton,Fulton,13069,43.32285,-76.41716,0,Native American,convertible,0,0,0,0,0,0,0,0,0,0,0,0,0,0,0,0
Fans,Buffalo Sabres,NHL,Galion,Galion,Galion,44833,40.746972,-82.823,0,Native American,convertible,0,0,0,0,0,0,0,0,0,0,0,0,0,0,0,0
Fans,Buffalo Sabres,NHL,Gang Mills,Painted Post,Painted Post,14870,42.16202,-77.09414,0,Native American,convertible,0,0,0,0,0,0,0,0,0,0,0,0,0,0,0,0
Fans,Buffalo Sabres,NHL,Gasport,Gasport,Gasport,14067,43.208166,-78.56623,52,Native American,avid,0,0,0,0,0,0,0,0,0,0,0,0,0,0,0,0
Fans,Buffalo Sabres,NHL,Gates-North Gates,Rochester,Rochester,14606,43.173612,-77.691577,13,Native American,casual,0,0,0,0,0,0,0,0,0,0,0,0,0,0,0,0
Fans,Buffalo Sabres,NHL,Geneseo,Geneseo,Geneseo,14454,42.783801,-77.777872,12,Native American,casual,0,0,0,0,0,0,0,0,0,0,0,0,0,0,0,0
Fans,Buffalo Sabres,NHL,Georgetown,Georgetown,Georgetown,13072,42.768124,-75.788393,0,Native American,convertible,0,0,0,0,0,0,0,0,0,0,0,0,0,0,0,0
Fans,Buffalo Sabres,NHL,Germantown,Germantown,Germantown,12526,42.122234,-73.858769,0,Native American,convertible,0,0,0,0,0,0,0,0,0,0,0,0,0,0,0,0
Fans,Buffalo Sabres,NHL,Getzville,Getzville,Getzville,14068,43.026737,-78.762454,38,Native American,casual,0,0,1,0,0,0,0,0,0,0,0,0,0,0,0,0
Fans,Buffalo Sabres,NHL,Gowanda,Gowanda,Gowanda,14070,42.41994,-78.954628,44,Native American,avid,0,0,0,0,0,0,0,0,0,0,0,0,0,0,0,0
Fans,Buffalo Sabres,NHL,Grand Island,Grand Island,Grand Island,14072,43.015256,-78.958945,59,Native American,avid,0,0,0,0,0,0,0,0,0,0,0,0,0,0,0,0
Fans,Buffalo Sabres,NHL,Granville,Granville,Granville,12832,43.369373,-73.331692,0,Native American,convertible,0,0,0,0,0,0,0,0,0,0,0,0,0,0,0,0
Fans,Buffalo Sabres,NHL,Greece,Rochester,Rochester,14612,43.257111,-77.67824,14,Native American,casual,0,0,0,0,0,0,0,0,0,0,0,0,0,0,0,0
Fans,Buffalo Sabres,NHL,Groton,Groton,Groton,13073,42.579298,-76.392709,0,Native American,convertible,1,0,0,0,0,0,0,0,0,0,0,0,0,0,0,0
Fans,Buffalo Sabres,NHL,Hamburg,Hamburg,Hamburg,14075,42.729083,-78.837596,68,Native American,avid,0,0,0,0,0,1,0,0,0,0,0,0,0,0,0,0
Fans,Buffalo Sabres,NHL,Harris Hill,Buffalo,Buffalo,14221,42.968507,-78.749153,44,Native American,avid,0,0,0,0,0,0,0,0,0,0,0,0,0,0,0,0
Fans,Buffalo Sabres,NHL,Harrison,Harrison,Harrison,10528,40.979118,-73.723036,0,Native American,convertible,0,0,0,0,0,0,0,0,0,0,0,0,0,0,0,0
Fans,Buffalo Sabres,NHL,Henrietta,Henrietta,Henrietta,14467,43.05923,-77.61222,8,Native American,casual,0,0,0,0,0,0,0,0,0,0,0,0,0,0,0,0
Fans,Buffalo Sabres,NHL,Hilton,Hilton,Hilton,14468,43.28521,-77.832333,19,Native American,casual,2,1,1,0,0,1,0,0,1,1,2,1,2,0,1,2
Fans,Buffalo Sabres,NHL,Holland,Holland,Holland,14080,42.640179,-78.543738,66,Native American,avid,0,0,0,0,0,0,0,0,0,0,0,0,0,0,0,0
Fans,Buffalo Sabres,NHL,Holley,Holley,Holley,14470,43.21586,-78.073057,16,Native American,casual,0,0,0,0,0,0,1,0,0,0,0,0,0,0,0,0
Fans,Buffalo Sabres,NHL,Homosassa Springs,Homosassa,Homosassa,34448,28.787963,-82.567981,0,Native American,convertible,0,0,0,0,0,1,0,0,0,0,0,0,0,0,0,0
Fans,Buffalo Sabres,NHL,Honeoye,Honeoye,Honeoye,14471,42.755573,-77.491905,0,Native American,convertible,0,0,0,0,0,1,0,0,0,0,0,0,0,0,0,0
Fans,Buffalo Sabres,NHL,Honeoye Falls,Honeoye Falls,Honeoye Falls,14472,42.982513,-77.606771,21,Native American,casual,0,0,0,0,0,0,0,0,0,0,0,0,0,0,0,0
Fans,Buffalo Sabres,NHL,Irondequoit,Rochester,Rochester,14617,43.207062,-77.609425,13,Native American,casual,0,0,0,0,0,0,0,0,0,0,0,0,0,0,0,0
Fans,Buffalo Sabres,NHL,Irving,Irving,Irving,14081,42.543516,-79.101301,44,Native American,avid,0,0,0,0,0,0,0,0,0,0,0,0,0,0,0,0
Fans,Buffalo Sabres,NHL,Jacksboro,Jacksboro,Jacksboro,37757,36.307449,-84.15575,0,Native American,convertible,0,0,0,0,0,0,0,0,0,0,0,0,0,0,0,0
Fans,Buffalo Sabres,NHL,Jamestown,Jamestown,Jamestown,14701,42.08016,-79.25671,16,Native American,casual,0,0,0,0,0,0,0,0,0,0,1,0,0,0,0,0
Fans,Buffalo Sabres,NHL,Jamestown West,Jamestown,Jamestown,14701,42.08016,-79.25671,0,Native American,convertible,0,0,0,0,0,0,0,0,0,0,1,0,0,0,0,0
Fans,Buffalo Sabres,NHL,Kane,Kane,Kane,16735,41.66284,-78.81114,0,Native American,convertible,0,0,0,0,0,0,0,0,0,0,0,0,0,0,0,0
Fans,Buffalo Sabres,NHL,Keene Valley,Keene Valley,Keene Valley,12943,44.202397,-73.773111,0,Native American,convertible,0,0,0,0,0,0,0,0,0,0,0,0,0,0,0,0
Fans,Buffalo Sabres,NHL,Kenmore,Buffalo,Buffalo,14217,42.971869,-78.876868,64,Native American,avid,0,0,0,0,0,0,0,0,0,0,0,0,0,0,0,0
Fans,Buffalo Sabres,NHL,Kent,Kent,Kent,44240,41.132323,-81.332781,0,Native American,convertible,0,0,0,0,0,0,0,0,0,0,0,0,0,0,0,0
Fans,Buffalo Sabres,NHL,Kirkland,Clinton,Clinton,13323,43.036697,-75.382414,0,Native American,convertible,0,0,0,0,0,0,0,0,0,0,0,0,0,0,0,0
Fans,Buffalo Sabres,NHL,Lackawanna,Buffalo,Buffalo,14218,42.814558,-78.807754,55,Native American,avid,0,0,0,0,0,0,0,0,0,0,0,0,0,0,0,0
Fans,Buffalo Sabres,NHL,Lake Erie Beach,Angola,Angola,14006,42.63839,-79.02782,58,Native American,avid,0,0,0,0,0,0,0,0,0,0,0,0,0,0,0,0
Fans,Buffalo Sabres,NHL,Lakewood,Lakewood,Lakewood,18439,41.828081,-75.396741,33,Native American,casual,0,0,0,0,0,0,0,0,0,0,0,0,0,0,0,0
Fans,Buffalo Sabres,NHL,Lancaster,Lancaster,Lancaster,17601,40.076553,-76.31068,84,Native American,avid,0,0,0,0,0,0,0,0,0,1,0,0,0,0,0,0
Fans,Buffalo Sabres,NHL,Lawrenceville,Trenton,Trenton,8648,40.279457,-74.69118,0,Native American,convertible,0,0,0,0,0,0,0,0,0,0,1,0,0,0,0,0
Fans,Buffalo Sabres,NHL,Le Roy,Le Roy,Le Roy,14482,42.95619,-77.989988,19,Native American,casual,0,0,0,0,0,0,0,0,0,0,0,0,0,0,0,0
Fans,Buffalo Sabres,NHL,Lewiston,Lewiston,Lewiston,14092,43.170805,-78.989515,66,Native American,avid,0,0,0,0,0,0,0,0,0,0,0,0,0,0,0,0
Fans,Buffalo Sabres,NHL,Lima,Lima,Lima,14485,42.889864,-77.608688,0,Native American,convertible,0,0,0,0,0,0,0,0,0,0,0,0,0,0,0,0
Fans,Buffalo Sabres,NHL,Lime Lake,Machias,Machias,14101,42.38917,-78.554217,0,Native American,convertible,0,0,0,0,0,0,0,0,0,0,0,0,0,0,0,0
Fans,Buffalo Sabres,NHL,Little Valley,Little Valley,Little Valley,14755,42.254567,-78.823628,0,Native American,convertible,0,0,0,0,0,0,1,0,0,1,0,0,0,0,0,0
Fans,Buffalo Sabres,NHL,Lockport,Lockport,Lockport,14094,43.168463,-78.706886,52,Native American,avid,0,0,0,0,0,0,0,0,0,0,0,0,0,0,0,0
Fans,Buffalo Sabres,NHL,Lyndonville,Lyndonville,Lyndonville,14098,43.324031,-78.367151,0,Native American,convertible,0,0,0,0,0,0,0,0,0,0,0,0,0,0,0,0
Fans,Buffalo Sabres,NHL,Macedon,Macedon,Macedon,14502,43.110807,-77.31345,16,Native American,casual,0,0,0,0,0,0,0,0,0,0,0,0,0,0,0,0
Fans,Buffalo Sabres,NHL,Machias,Machias,Machias,14101,42.38917,-78.554217,0,Native American,convertible,0,0,0,0,0,0,0,0,0,0,0,0,0,0,0,0
Fans,Buffalo Sabres,NHL,Manchester,Manchester,Manchester,17345,40.06315,-76.7183,0,Native American,convertible,0,0,0,0,0,0,0,0,0,0,0,0,0,0,0,0
Fans,Buffalo Sabres,NHL,Marion,Marion,Marion,14505,43.15594,-77.172684,0,Native American,convertible,0,0,0,0,0,0,0,0,0,0,0,0,0,0,0,0
Fans,Buffalo Sabres,NHL,Mayville,Mayville,Mayville,14757,42.25395,-79.50449,18,Native American,casual,1,0,0,0,0,0,0,0,0,0,0,0,0,0,0,0
Fans,Buffalo Sabres,NHL,Medina,Medina,Medina,14103,43.239442,-78.359871,44,Native American,avid,0,0,0,0,0,0,0,0,0,0,0,0,0,0,0,0
Fans,Buffalo Sabres,NHL,Melrose Park,Melrose Park,Melrose Park,60164,41.92138,-87.892412,0,Native American,convertible,0,1,0,1,0,0,0,0,0,0,0,0,0,4,0,2
Fans,Buffalo Sabres,NHL,Middleport,Middleport,Middleport,14105,43.196947,-78.502849,41,Native American,avid,0,0,0,0,0,0,0,0,0,0,0,0,0,0,0,0
Fans,Buffalo Sabres,NHL,Millville,Millville,Millville,8332,39.370401,-75.04282,0,Native American,convertible,0,0,0,0,0,0,0,0,0,0,0,0,0,0,0,0
Fans,Buffalo Sabres,NHL,Mount Morris,Mount Morris,Mount Morris,14510,42.683466,-77.866402,0,Native American,convertible,0,0,0,0,0,0,0,0,0,0,0,0,0,0,0,0
Fans,Buffalo Sabres,NHL,Newport,Newport,Newport,5855,44.907921,-72.203948,0,Native American,convertible,0,0,1,1,0,0,0,0,0,0,0,1,1,0,0,0
Fans,Buffalo Sabres,NHL,Niagara Falls,Niagara Falls,Niagara Falls,14301,43.095821,-79.040407,28,Native American,casual,0,0,0,0,0,0,0,0,0,0,0,0,0,0,0,0
Fans,Buffalo Sabres,NHL,North Collins,North Collins,North Collins,14111,42.583165,-78.91888,62,Native American,avid,0,0,0,0,0,0,0,0,0,0,0,0,0,0,0,0
Fans,Buffalo Sabres,NHL,North Evans,North Evans,North Evans,14112,42.697963,-78.939953,90,Native American,avid,0,0,0,0,0,0,0,0,0,0,1,0,0,0,0,0
Fans,Buffalo Sabres,NHL,North Kingsville,North Kingsville,North Kingsville,44068,41.904594,-80.685034,0,Native American,convertible,0,0,0,0,0,0,0,0,0,0,0,0,0,0,0,0
Fans,Buffalo Sabres,NHL,North Rose,North Rose,North Rose,14516,43.195842,-76.908805,0,Native American,convertible,0,0,0,0,0,0,0,0,0,0,0,0,0,0,0,0
Fans,Buffalo Sabres,NHL,North Tonawanda,North Tonawanda,North Tonawanda,14120,43.03867,-78.8642,64,Native American,avid,0,0,0,0,0,0,0,0,0,0,0,0,0,0,0,0
Fans,Buffalo Sabres,NHL,Oak Hill,Oak Hill,Oak Hill,12460,42.4098,-74.15236,0,Native American,convertible,0,0,0,0,0,0,0,0,0,0,0,0,0,0,0,0
Fans,Buffalo Sabres,NHL,Oakfield,Oakfield,Oakfield,14125,43.087438,-78.269677,54,Native American,avid,0,0,0,0,0,0,0,0,0,0,0,0,0,0,0,0
Fans,Buffalo Sabres,NHL,Olcott,Olcott,Olcott,14126,43.335882,-78.728636,36,Native American,casual,0,0,1,0,0,0,0,0,0,0,0,0,0,0,0,0
Fans,Buffalo Sabres,NHL,Olean,Olean,Olean,14760,42.082142,-78.425973,21,Native American,casual,0,0,0,0,0,0,0,0,0,0,0,0,0,0,0,0
Fans,Buffalo Sabres,NHL,Orchard Park,Orchard Park,Orchard Park,14127,42.742541,-78.704437,66,Native American,avid,0,0,0,0,0,0,0,0,0,0,0,0,0,0,0,0
Fans,Buffalo Sabres,NHL,Oswego,Oswego,Oswego,13126,43.45535,-76.5105,0,Native American,convertible,0,0,0,0,0,0,0,0,0,0,0,0,0,0,0,0
Fans,Buffalo Sabres,NHL,Oxford,Oxford,Oxford,13830,42.437881,-75.567327,0,Native American,convertible,0,0,0,0,0,0,0,0,0,0,0,0,0,0,0,0
Fans,Buffalo Sabres,NHL,Pavilion,Pavilion,Pavilion,14525,42.910203,-78.026899,35,Native American,casual,1,0,0,0,0,0,0,0,0,0,0,0,0,0,0,0
Fans,Buffalo Sabres,NHL,Perry,Perry,Perry,14530,42.71562,-78.00556,27,Native American,casual,0,0,0,0,0,0,0,0,0,0,0,0,0,0,0,0
Fans,Buffalo Sabres,NHL,Perrysburg,Perrysburg,Perrysburg,14129,42.472671,-79.007621,0,Native American,convertible,0,0,0,0,0,0,0,0,0,0,0,0,0,0,0,0
Fans,Buffalo Sabres,NHL,Phelps,Phelps,Phelps,14532,42.963394,-77.043612,0,Native American,convertible,0,0,0,0,0,0,0,0,0,0,0,0,0,0,0,0
Fans,Buffalo Sabres,NHL,Pittsford,Pittsford,Pittsford,14534,43.060229,-77.520692,12,Native American,casual,0,0,0,0,0,0,0,0,0,0,0,0,0,0,0,0
Fans,Buffalo Sabres,NHL,Plantation,Fort Lauderdale,Fort Lauderdale,33313,26.148662,-80.207519,0,Native American,convertible,0,0,0,0,0,0,0,0,0,0,0,0,0,0,0,0
Fans,Buffalo Sabres,NHL,Potsdam,Potsdam,Potsdam,13676,44.65496,-74.926222,0,Native American,convertible,0,0,0,0,0,0,0,0,0,0,0,0,0,0,0,0
Fans,Buffalo Sabres,NHL,Randolph,Randolph,Randolph,14772,42.162,-78.97532,0,Native American,convertible,0,0,0,0,0,0,0,0,0,0,0,0,0,0,0,0
Fans,Buffalo Sabres,NHL,Ransomville,Ransomville,Ransomville,14131,43.233055,-78.906562,44,Native American,avid,0,0,0,0,0,0,0,0,0,0,0,0,0,0,0,2
Fans,Buffalo Sabres,NHL,Rapids,Lockport,Lockport,14094,43.168463,-78.706886,51,Native American,avid,0,0,0,0,0,0,0,0,0,0,0,0,0,0,0,0
Fans,Buffalo Sabres,NHL,Richburg,Richburg,Richburg,14774,42.088367,-78.149093,0,Native American,convertible,0,0,0,0,0,0,0,0,0,0,0,0,0,0,0,0
Fans,Buffalo Sabres,NHL,Ridgemont,Rochester,Rochester,14626,43.190312,-77.720018,12,Native American,casual,0,0,0,0,0,0,0,0,0,0,0,0,0,0,0,0
Fans,Buffalo Sabres,NHL,Romulus,Romulus,Romulus,14541,42.749713,-76.844921,0,Native American,convertible,0,0,0,0,0,0,0,0,0,0,0,0,0,0,0,0
Fans,Buffalo Sabres,NHL,Rush,Rush,Rush,14543,42.996613,-77.666524,0,Native American,convertible,0,0,0,0,0,0,0,0,0,0,0,0,0,0,0,0
Fans,Buffalo Sabres,NHL,Sanborn,Sanborn,Sanborn,14132,43.153105,-78.885611,66,Native American,avid,0,0,0,0,0,0,0,0,0,0,0,0,0,0,0,0
Fans,Buffalo Sabres,NHL,Sauquoit,Sauquoit,Sauquoit,13456,42.991124,-75.270758,0,Native American,convertible,0,0,0,0,0,0,0,0,0,0,0,0,0,0,0,0
Fans,Buffalo Sabres,NHL,Scottsville,Scottsville,Scottsville,14546,43.04471,-77.772652,18,Native American,casual,0,0,0,0,0,0,0,0,0,0,0,0,0,0,0,0
Fans,Buffalo Sabres,NHL,Shaver Lake,Shaver Lake,Shaver Lake,93664,37.098774,-119.166093,0,Native American,convertible,0,0,0,0,0,0,0,0,0,0,0,0,0,0,0,0
Fans,Buffalo Sabres,NHL,Silver Creek,Silver Creek,Silver Creek,14136,42.520038,-79.207843,31,Native American,casual,0,0,0,0,0,0,0,0,0,0,0,0,0,0,0,0
Fans,Buffalo Sabres,NHL,Sinclairville,Sinclairville,Sinclairville,14782,42.257762,-79.253829,0,Native American,convertible,0,0,0,0,0,0,0,0,0,0,0,0,0,0,0,0
Fans,Buffalo Sabres,NHL,Smethport,Smethport,Smethport,16749,41.81117,-78.44474,0,Native American,convertible,0,0,0,0,0,0,0,0,0,0,0,0,0,0,0,0
Fans,Buffalo Sabres,NHL,South Dayton,South Dayton,South Dayton,14138,42.36423,-79.05559,0,Native American,convertible,0,0,0,0,0,0,0,0,0,0,0,0,0,0,0,0
Fans,Buffalo Sabres,NHL,South Lockport,Lockport,Lockport,14094,43.168463,-78.706886,61,Native American,avid,0,0,0,0,0,0,0,0,0,0,0,0,0,0,0,0
Fans,Buffalo Sabres,NHL,South Wales,South Wales,South Wales,14139,42.716759,-78.543478,48,Native American,avid,0,0,0,0,0,0,0,0,0,0,0,0,0,0,0,0
Fans,Buffalo Sabres,NHL,Spencerport,Spencerport,Spencerport,14559,43.185709,-77.830577,24,Native American,casual,0,0,0,0,0,0,0,0,0,0,0,1,0,0,0,0
Fans,Buffalo Sabres,NHL,Springville,Springville,Springville,14141,42.538335,-78.685169,46,Native American,avid,0,0,0,0,0,1,0,0,0,0,0,0,0,0,0,0
Fans,Buffalo Sabres,NHL,Stanley,Stanley,Stanley,28164,35.35903,-81.09702,0,Native American,convertible,0,0,0,0,0,0,0,0,0,0,0,0,0,0,0,0
Fans,Buffalo Sabres,NHL,Stannards,Wellsville,Wellsville,14895,42.12201,-77.94806,27,Native American,casual,0,0,0,0,0,0,0,0,0,0,0,0,0,0,0,0
Fans,Buffalo Sabres,NHL,Stuyvesant Falls,Stuyvesant Falls,Stuyvesant Falls,12174,42.343986,-73.73477,0,Native American,convertible,0,0,0,0,0,0,0,0,0,0,0,0,0,0,0,0
Fans,Buffalo Sabres,NHL,Tonawanda,Tonawanda,Tonawanda,14150,42.99704,-78.878659,66,Native American,avid,0,0,0,0,0,0,0,0,0,0,0,0,0,0,0,0
Fans,Buffalo Sabres,NHL,Town Line,Oakfield,Oakfield,14125,43.087438,-78.269677,76,Native American,avid,0,0,0,0,0,0,0,0,0,0,0,0,0,0,0,0
Fans,Buffalo Sabres,NHL,Victor,Victor,Victor,14564,42.973715,-77.426906,12,Native American,casual,0,0,0,0,0,0,0,0,0,0,0,0,0,0,0,0
Fans,Buffalo Sabres,NHL,Wanatah,Wanatah,Wanatah,46390,41.421123,-86.872078,0,Native American,convertible,0,0,0,0,0,0,0,0,0,0,0,0,0,0,0,0
Fans,Buffalo Sabres,NHL,Warsaw,Warsaw,Warsaw,14569,42.740223,-78.164804,25,Native American,casual,0,0,0,0,0,0,0,0,0,0,0,0,0,0,0,0
Fans,Buffalo Sabres,NHL,Waterloo,Waterloo,Waterloo,13165,42.892556,-76.882263,0,Native American,convertible,0,0,0,0,0,0,0,0,0,0,0,0,0,0,0,0
Fans,Buffalo Sabres,NHL,Wayland,Wayland,Wayland,14572,42.516793,-77.564247,0,Native American,convertible,0,0,0,0,0,0,0,0,0,0,0,0,0,0,0,0
Fans,Buffalo Sabres,NHL,Webster,Webster,Webster,14580,43.21821,-77.454075,17,Native American,casual,0,0,0,0,0,0,0,0,0,0,0,0,0,0,0,0
Fans,Buffalo Sabres,NHL,Wellsboro,Wellsboro,Wellsboro,16901,41.74868,-77.30053,0,Native American,convertible,0,0,0,0,0,0,0,0,0,0,0,0,0,0,0,0
Fans,Buffalo Sabres,NHL,West Elmira,Elmira,Elmira,14905,42.093574,-76.844329,0,Native American,convertible,0,0,0,1,0,0,0,0,0,0,0,0,0,0,0,0
Fans,Buffalo Sabres,NHL,West Falls,West Falls,West Falls,14170,42.702797,-78.670098,78,Native American,avid,0,0,0,0,1,0,0,0,0,0,0,0,0,0,0,0
Fans,Buffalo Sabres,NHL,West Seneca,Buffalo,Buffalo,14224,42.837128,-78.748352,78,Native American,avid,0,0,0,0,0,0,0,0,0,0,0,0,0,0,0,0
Fans,Buffalo Sabres,NHL,West Valley,West Valley,West Valley,14171,42.406409,-78.639581,0,Native American,convertible,0,0,0,0,0,0,0,0,0,0,0,0,0,0,0,0
Fans,Buffalo Sabres,NHL,Westfield,Westfield,Westfield,14787,42.32228,-79.5781,0,Native American,convertible,0,0,0,0,0,0,0,0,0,0,0,0,0,0,0,0
Fans,Buffalo Sabres,NHL,Westvale,Syracuse,Syracuse,13219,43.041703,-76.222898,0,Native American,convertible,0,0,0,0,0,0,0,0,0,0,0,0,0,0,0,0
Fans,Buffalo Sabres,NHL,Wheatfield,North Tonawanda,North Tonawanda,14120,43.03867,-78.8642,59,Native American,avid,0,0,0,0,0,0,0,0,0,0,0,0,0,0,0,0
Fans,Buffalo Sabres,NHL,Whitesboro,Whitesboro,Whitesboro,13492,43.12201,-75.29156,0,Native American,convertible,0,0,0,0,0,0,0,0,0,0,0,0,0,0,0,0
Fans,Buffalo Sabres,NHL,Wilson,Wilson,Wilson,14172,43.272729,-78.83101,30,Native American,casual,0,0,0,0,0,0,0,0,0,0,0,0,0,0,0,0
Fans,Buffalo Sabres,NHL,Woodacre,Woodacre,Woodacre,94973,38.00532,-122.63811,0,Native American,convertible,0,0,0,0,0,0,0,0,0,0,0,0,0,0,0,0
Fans,Buffalo Sabres,NHL,Woodbury,Woodbury,Woodbury,11797,40.81764,-73.47035,0,Native American,convertible,0,0,0,0,0,0,0,0,0,0,0,0,0,0,0,0
Fans,Buffalo Sabres,NHL,Wynantskill,Wynantskill,Wynantskill,12198,42.676167,-73.606194,0,Native American,convertible,0,0,0,0,0,0,0,0,0,0,0,0,0,0,0,0
Fans,Buffalo Sabres,NHL,York,York,York,17401,39.962998,-76.727139,0,Native American,convertible,0,0,0,0,0,0,0,0,0,0,0,0,0,0,0,0
Fans,Buffalo Sabres,NHL,Yorkshire,Manassas,Manassas,20111,38.784004,-77.469711,31,Native American,casual,0,0,0,0,0,0,0,0,0,0,0,0,0,0,0,0
Fans,Buffalo Sabres,NHL,Youngstown,Youngstown,Youngstown,14174,43.244454,-78.988325,62,Native American,avid,0,0,0,0,0,0,0,0,0,0,0,0,0,0,0,0
Fans,Tampa Bay Lightning,NHL,Aledo,Aledo,Aledo,76008,32.69596,-97.60225,0,Native American,convertible,0,0,0,0,0,0,0,0,0,0,0,0,0,0,0,0
Fans,Tampa Bay Lightning,NHL,Apollo Beach,Apollo Beach,Apollo Beach,33572,27.77329,-82.40815,91,Native American,avid,0,0,0,0,0,0,0,0,0,0,0,0,0,0,0,0
Fans,Tampa Bay Lightning,NHL,Arboles,Arboles,Arboles,81121,37.02128,-107.42494,0,Native American,convertible,0,0,0,0,0,0,0,0,0,0,0,0,0,0,0,0
Fans,Tampa Bay Lightning,NHL,Asbury,Williston,Williston,58801,48.225729,-103.649047,0,Native American,convertible,0,0,0,0,0,0,0,0,0,0,0,0,0,0,0,0
Fans,Tampa Bay Lightning,NHL,Astor,Astor,Astor,32102,29.174011,-81.575044,3,Native American,convertible,0,0,0,0,0,0,0,0,0,0,0,0,0,0,0,0
Fans,Tampa Bay Lightning,NHL,Bartow,Bartow,Bartow,33830,27.918445,-81.790794,28,Native American,casual,0,0,0,0,0,0,0,0,0,0,0,0,0,0,0,0
Fans,Tampa Bay Lightning,NHL,Bayonet Point,Hudson,Hudson,34667,28.382489,-82.64803,52,Native American,avid,0,0,0,0,0,0,0,0,0,0,0,0,0,0,0,0
Fans,Tampa Bay Lightning,NHL,Bayshore Gardens,Bradenton,Bradenton,34207,27.439419,-82.577779,29,Native American,casual,0,0,0,0,0,0,0,0,0,0,0,0,0,0,0,0
Fans,Tampa Bay Lightning,NHL,Beacon Square,New Port Richey,New Port Richey,34652,28.239369,-82.736882,56,Native American,avid,0,0,0,0,0,0,0,0,0,0,0,0,0,0,0,0
Fans,Tampa Bay Lightning,NHL,Beaverdam Lake-Salisbury Mills,Salisbury Mills,Salisbury Mills,12577,41.437176,-74.121804,0,Native American,convertible,0,0,0,0,0,0,0,0,0,0,0,0,0,0,0,0
Fans,Tampa Bay Lightning,NHL,Bee Ridge,Sarasota,Sarasota,34233,27.280031,-82.476631,45,Native American,avid,0,0,0,0,0,0,0,0,0,0,0,0,0,0,0,0
Fans,Tampa Bay Lightning,NHL,Belle Glade,Belle Glade,Belle Glade,33430,26.645895,-80.430269,0,Native American,convertible,0,0,0,0,0,0,0,0,0,0,0,0,0,0,0,0
Fans,Tampa Bay Lightning,NHL,Belleair Beach,Belleair Beach,Belleair Beach,33786,27.923077,-82.843159,100,Native American,avid,0,0,0,0,0,0,0,0,0,0,0,0,0,0,0,0
Fans,Tampa Bay Lightning,NHL,Big Coppitt Key,Key West,Key West,33040,24.557053,-81.780989,0,Native American,convertible,0,0,0,0,0,0,0,0,0,0,0,0,0,0,0,0
Fans,Tampa Bay Lightning,NHL,Bithlo,Orlando,Orlando,32820,28.572527,-81.121885,11,Native American,casual,0,0,0,0,0,0,0,0,0,0,0,0,0,0,0,0
Fans,Tampa Bay Lightning,NHL,Blairsville,Blairsville,Blairsville,30512,34.867512,-83.967636,15,Native American,casual,0,0,0,0,0,0,0,0,0,0,0,0,0,0,0,0
Fans,Tampa Bay Lightning,NHL,Bloomingdale,Bloomingdale,Bloomingdale,31302,32.107103,-81.291335,73,Native American,avid,0,0,0,0,0,0,0,0,0,0,0,0,0,0,0,0
Fans,Tampa Bay Lightning,NHL,Bluefield,Bluefield,Bluefield,24701,37.26984,-81.22232,0,Native American,convertible,0,0,0,0,0,0,0,0,1,0,0,0,0,0,0,0
Fans,Tampa Bay Lightning,NHL,Bradenton,Bradenton,Bradenton,34205,27.484084,-82.581821,39,Native American,casual,0,0,0,0,0,0,0,0,0,0,0,1,0,0,0,0
Fans,Tampa Bay Lightning,NHL,Brandon,Brandon,Brandon,33510,27.955637,-82.296693,72,Native American,avid,0,0,0,0,0,0,0,0,0,0,0,0,0,0,0,0
Fans,Tampa Bay Lightning,NHL,Brooklyn Center,Minneapolis,Minneapolis,55429,45.063552,-93.341097,0,Native American,convertible,0,0,0,0,0,0,0,0,0,0,0,0,0,0,0,0
Fans,Tampa Bay Lightning,NHL,Brooksville,Brooksville,Brooksville,34601,28.586197,-82.395858,50,Native American,avid,0,0,0,0,0,0,0,0,0,0,0,0,0,0,0,0
Fans,Tampa Bay Lightning,NHL,Butler Beach,Saint Augustine,Saint Augustine,32080,29.819001,-81.269782,0,Native American,convertible,0,0,0,0,0,0,0,0,0,0,0,0,0,0,0,0
Fans,Tampa Bay Lightning,NHL,Camillus,Camillus,Camillus,13031,43.049756,-76.348012,0,Native American,convertible,0,0,0,0,0,0,0,0,0,0,0,0,0,0,0,0
Fans,Tampa Bay Lightning,NHL,Carter Lake,Carter Lake,Carter Lake,51510,41.287335,-95.91689,0,Native American,convertible,0,0,0,0,0,0,0,0,0,0,0,0,0,0,0,0
Fans,Tampa Bay Lightning,NHL,Cerro Gordo,Cerro Gordo,Cerro Gordo,61818,39.88603,-88.68207,0,Native American,convertible,0,0,0,0,0,0,0,0,0,0,0,0,0,0,0,0
Fans,Tampa Bay Lightning,NHL,Cherry Hills Village,Englewood,Englewood,80113,39.644445,-104.965111,0,Native American,convertible,0,0,0,0,0,0,0,0,0,0,0,0,0,0,0,0
Fans,Tampa Bay Lightning,NHL,Cheval,Lutz,Lutz,33548,28.147189,-82.483778,90,Native American,avid,0,0,0,0,0,0,0,0,0,0,0,0,0,0,0,0
Fans,Tampa Bay Lightning,NHL,Chittenango,Chittenango,Chittenango,13037,43.04507,-75.86658,0,Native American,convertible,0,0,0,0,0,0,0,0,0,0,0,0,0,0,0,0
Fans,Tampa Bay Lightning,NHL,Citrus Hills,Hernando,Hernando,34442,28.922317,-82.390044,52,Native American,avid,0,0,0,0,0,0,0,0,0,0,0,0,0,0,0,0
Fans,Tampa Bay Lightning,NHL,Citrus Park,Tampa,Tampa,33625,28.072671,-82.559501,59,Native American,avid,0,0,0,0,0,0,0,0,0,0,0,0,0,0,0,0
Fans,Tampa Bay Lightning,NHL,Citrus Springs,Dunnellon,Dunnellon,34434,28.993778,-82.424132,21,Native American,casual,0,0,0,0,0,0,0,0,0,0,0,0,0,0,0,0
Fans,Tampa Bay Lightning,NHL,Clearwater,Clearwater,Clearwater,33755,27.978147,-82.781523,68,Native American,avid,0,0,0,0,0,0,0,0,0,0,0,0,0,0,0,0
Fans,Tampa Bay Lightning,NHL,Cortez,Cortez,Cortez,81321,37.373594,-108.662826,46,Native American,avid,2,0,0,0,0,0,0,0,0,0,0,0,1,0,0,0
Fans,Tampa Bay Lightning,NHL,Crystal Lake,Crystal Lake,Crystal Lake,60014,42.243772,-88.323986,34,Native American,casual,0,0,0,0,0,0,0,0,0,0,0,0,0,0,0,0
Fans,Tampa Bay Lightning,NHL,Crystal River,Crystal River,Crystal River,34428,28.958393,-82.599279,26,Native American,casual,0,0,0,0,0,0,0,0,0,1,0,0,0,0,0,0
Fans,Tampa Bay Lightning,NHL,Delphos,Delphos,Delphos,45833,40.794444,-84.311596,0,Native American,convertible,0,0,0,0,0,0,0,0,0,0,0,0,0,0,0,0
Fans,Tampa Bay Lightning,NHL,Dover,Dover,Dover,19901,39.156376,-75.49549,51,Native American,avid,0,0,0,0,0,0,0,0,0,0,0,0,0,0,0,0
Fans,Tampa Bay Lightning,NHL,Dripping Springs,Dripping Springs,Dripping Springs,78620,30.165463,-98.044468,0,Native American,convertible,0,0,0,0,0,0,0,0,0,0,0,0,0,0,0,0
Fans,Tampa Bay Lightning,NHL,Dunedin,Dunedin,Dunedin,34698,28.010895,-82.773995,81,Native American,avid,0,0,0,0,0,0,0,0,0,0,0,0,0,0,0,0
Fans,Tampa Bay Lightning,NHL,Dunkirk,Dunkirk,Dunkirk,20754,38.7156,-76.67297,0,Native American,convertible,0,0,0,0,0,0,0,0,0,0,0,0,1,0,0,0
Fans,Tampa Bay Lightning,NHL,East Farmingdale,Farmingdale,Farmingdale,11735,40.732747,-73.432789,0,Native American,convertible,0,0,0,0,0,0,0,0,0,0,0,0,0,0,0,0
Fans,Tampa Bay Lightning,NHL,East Lake,Oldsmar,Oldsmar,34677,28.050324,-82.677379,80,Native American,avid,0,0,0,0,0,0,0,0,0,0,0,0,0,0,0,0
Fans,Tampa Bay Lightning,NHL,East Lake-Orient Park,Tampa,Tampa,33637,28.047044,-82.363024,56,Native American,avid,0,0,0,0,0,0,0,0,0,0,0,0,0,0,0,0
Fans,Tampa Bay Lightning,NHL,East Palatka,East Palatka,East Palatka,32131,29.65062,-81.59816,0,Native American,convertible,0,0,0,0,0,0,0,0,0,0,0,0,0,0,0,0
Fans,Tampa Bay Lightning,NHL,Edgewater,Edgewater,Edgewater,21037,38.95706,-76.54996,19,Native American,casual,0,0,0,0,0,0,0,0,0,0,0,0,0,0,0,0
Fans,Tampa Bay Lightning,NHL,Egypt Lake-Leto,Tampa,Tampa,33614,28.031495,-82.496367,45,Native American,avid,0,0,0,0,0,0,0,0,0,0,0,0,0,0,0,0
Fans,Tampa Bay Lightning,NHL,Ellenton,Ellenton,Ellenton,34222,27.546332,-82.496732,40,Native American,avid,0,0,0,0,0,0,0,0,0,0,0,0,0,0,0,0
Fans,Tampa Bay Lightning,NHL,Eustis,Eustis,Eustis,32726,28.855051,-81.678843,0,Native American,convertible,0,0,0,0,0,0,0,0,0,0,0,0,0,0,0,0
Fans,Tampa Bay Lightning,NHL,Feather Sound,Clearwater,Clearwater,33762,27.89417,-82.674571,60,Native American,avid,0,0,0,0,0,0,0,0,0,0,0,0,0,0,0,0
Fans,Tampa Bay Lightning,NHL,Flagler Beach,Flagler Beach,Flagler Beach,32136,29.463685,-81.147376,0,Native American,convertible,0,0,0,0,0,0,0,0,0,0,0,0,0,0,0,0
Fans,Tampa Bay Lightning,NHL,Floral City,Floral City,Floral City,34436,28.73035,-82.307734,42,Native American,avid,0,0,0,0,0,0,0,0,0,0,0,0,0,0,0,0
Fans,Tampa Bay Lightning,NHL,Fruitville,Sarasota,Sarasota,34232,27.324845,-82.471887,34,Native American,casual,0,0,0,0,0,0,0,0,0,0,0,0,0,0,0,0
Fans,Tampa Bay Lightning,NHL,Georgetown Township,Jenison,Jenison,49428,42.918544,-85.842586,3,Native American,convertible,0,0,0,0,0,0,0,0,0,0,0,0,0,0,0,0
Fans,Tampa Bay Lightning,NHL,Gibsonton,Gibsonton,Gibsonton,33534,27.82665,-82.37425,36,Native American,casual,0,2,1,4,1,0,3,0,0,3,3,1,0,0,1,0
Fans,Tampa Bay Lightning,NHL,Greater Carrollwood,Tampa,Tampa,33624,28.080256,-82.528248,67,Native American,avid,0,0,0,0,0,0,0,0,0,0,0,0,0,0,0,0
Fans,Tampa Bay Lightning,NHL,Greater Northdale,Tampa,Tampa,33624,28.080256,-82.528248,92,Native American,avid,0,0,0,0,0,0,0,0,0,0,0,0,0,0,0,0
Fans,Tampa Bay Lightning,NHL,Gulf Gate Estates,Sarasota,Sarasota,34231,27.266027,-82.516651,36,Native American,casual,5,1,2,2,1,2,1,0,4,5,5,9,5,3,6,1
Fans,Tampa Bay Lightning,NHL,Gulfport,Saint Petersburg,Saint Petersburg,33707,27.757005,-82.726422,86,Native American,avid,0,0,0,0,0,0,0,0,0,0,0,0,0,0,0,0
Fans,Tampa Bay Lightning,NHL,Haines City,Haines City,Haines City,33844,28.075834,-81.592933,16,Native American,casual,0,0,0,0,1,0,0,0,0,0,0,0,0,0,0,0
Fans,Tampa Bay Lightning,NHL,Harbour Heights,Punta Gorda,Punta Gorda,33983,27.001845,-82.018382,4,Native American,convertible,2,2,0,1,1,0,0,2,2,2,1,4,4,1,4,2
Fans,Tampa Bay Lightning,NHL,Hardyston Township,Hamburg,Hamburg,7419,41.159187,-74.57688,0,Native American,convertible,9,1,8,3,2,4,0,2,1,2,5,6,5,2,3,2
Fans,Tampa Bay Lightning,NHL,Head of the Harbor,Saint James,Saint James,11780,40.889314,-73.174435,0,Native American,convertible,0,0,0,0,0,0,0,0,0,0,0,0,0,0,0,0
Fans,Tampa Bay Lightning,NHL,Heathrow,Lake Mary,Lake Mary,32746,28.7577,-81.350772,8,Native American,casual,1,1,0,0,0,0,1,0,0,1,0,1,2,0,1,0
Fans,Tampa Bay Lightning,NHL,Hempstead,Hempstead,Hempstead,11550,40.700201,-73.620872,0,Native American,convertible,0,0,0,0,0,0,0,1,0,0,1,2,0,0,1,3
Fans,Tampa Bay Lightning,NHL,Hernando,Hernando,Hernando,34442,28.922317,-82.390044,46,Native American,avid,0,0,0,0,0,0,0,0,0,0,0,0,0,0,0,0
Fans,Tampa Bay Lightning,NHL,Hernando Beach,Spring Hill,Spring Hill,34607,28.504888,-82.625672,57,Native American,avid,0,0,2,0,1,0,0,0,1,0,1,0,0,1,0,0
Fans,Tampa Bay Lightning,NHL,Hinesville,Hinesville,Hinesville,31313,31.844789,-81.612554,0,Native American,convertible,0,0,0,0,0,0,0,0,0,0,0,0,0,0,0,0
Fans,Tampa Bay Lightning,NHL,Holden Heights,Orlando,Orlando,32839,28.489931,-81.406142,0,Native American,convertible,0,0,0,0,0,0,0,0,0,0,0,0,0,0,0,0
Fans,Tampa Bay Lightning,NHL,Holiday,Holiday,Holiday,34690,28.191434,-82.724448,68,Native American,avid,0,0,0,0,0,0,0,0,0,0,0,0,0,0,0,0
Fans,Tampa Bay Lightning,NHL,Holmes Beach,Bradenton Beach,Bradenton Beach,34217,27.485915,-82.710221,47,Native American,avid,0,0,0,0,0,0,0,0,0,0,0,0,0,0,0,0
Fans,Tampa Bay Lightning,NHL,Homosassa,Homosassa,Homosassa,34446,28.7508,-82.513889,74,Native American,avid,0,0,0,0,0,0,0,0,0,0,0,0,0,0,0,0
Fans,Tampa Bay Lightning,NHL,Homosassa Springs,Homosassa,Homosassa,34448,28.787963,-82.567981,27,Native American,casual,0,0,0,0,0,1,0,0,0,0,0,0,0,0,0,0
Fans,Tampa Bay Lightning,NHL,Hudson,Hudson,Hudson,34667,28.382489,-82.64803,73,Native American,avid,0,0,0,0,0,0,0,0,0,0,0,0,0,0,0,0
Fans,Tampa Bay Lightning,NHL,Indian Rocks Beach,Indian Rocks Beach,Indian Rocks Beach,33785,27.886757,-82.843525,54,Native American,avid,0,0,0,0,0,0,0,0,0,0,0,0,0,0,0,0
Fans,Tampa Bay Lightning,NHL,Indian Shores,Indian Rocks Beach,Indian Rocks Beach,33785,27.886757,-82.843525,67,Native American,avid,0,0,0,0,0,0,0,0,0,0,0,0,0,0,0,0
Fans,Tampa Bay Lightning,NHL,Inverness Highlands South,Inverness,Inverness,34452,28.816305,-82.343655,48,Native American,avid,0,0,0,0,0,0,0,0,0,0,1,0,0,0,0,0
Fans,Tampa Bay Lightning,NHL,Jan Phyl Village,Winter Haven,Winter Haven,33880,27.987284,-81.762456,44,Native American,avid,0,0,0,0,0,0,0,0,0,0,0,0,0,0,0,0
Fans,Tampa Bay Lightning,NHL,Jasmine Estates,Port Richey,Port Richey,34668,28.297976,-82.704101,75,Native American,avid,1,1,0,1,0,0,1,0,0,0,1,2,1,0,0,0
Fans,Tampa Bay Lightning,NHL,Kathleen,Kathleen,Kathleen,33849,28.22607,-82.068888,36,Native American,casual,0,0,0,0,0,0,0,0,0,0,0,0,0,0,0,0
Fans,Tampa Bay Lightning,NHL,Kenneth City,Saint Petersburg,Saint Petersburg,33709,27.820082,-82.730798,60,Native American,avid,1,0,0,0,0,0,0,0,0,0,0,0,0,0,0,0
Fans,Tampa Bay Lightning,NHL,Kensington Park,Sarasota,Sarasota,34235,27.363072,-82.478376,0,Native American,convertible,0,0,0,0,0,1,1,0,0,0,0,1,1,0,0,0
Fans,Tampa Bay Lightning,NHL,Keystone,Tarpon Springs,Tarpon Springs,34688,28.147125,-82.678972,86,Native American,avid,0,0,0,0,0,0,0,0,0,0,0,0,0,0,0,0
Fans,Tampa Bay Lightning,NHL,Lake Hart,Orlando,Orlando,32832,28.388834,-81.175651,4,Native American,convertible,3,3,2,2,2,3,1,2,1,2,9,6,4,5,7,5
Fans,Tampa Bay Lightning,NHL,Lake Mack-Forest Hills,Paisley,Paisley,32767,28.981525,-81.482049,0,Native American,convertible,0,0,0,0,0,0,0,0,0,0,0,0,0,0,0,0
Fans,Tampa Bay Lightning,NHL,Lake Magdalene,Tampa,Tampa,33613,28.077403,-82.444209,53,Native American,avid,0,0,0,0,0,1,0,0,0,0,0,0,0,0,0,0
Fans,Tampa Bay Lightning,NHL,Lake Placid,Lake Placid,Lake Placid,33852,27.336002,-81.36628,0,Native American,convertible,0,0,0,0,0,0,0,0,0,0,0,0,0,0,0,0
Fans,Tampa Bay Lightning,NHL,Lakeland,Lakeland,Lakeland,33801,28.035908,-81.899669,38,Native American,casual,0,0,0,0,0,0,0,0,0,0,0,0,0,0,0,0
Fans,Tampa Bay Lightning,NHL,Lakeland Highlands,Lakeland,Lakeland,33813,27.965132,-81.939522,47,Native American,avid,0,0,0,0,0,0,0,0,0,0,0,0,0,0,0,0
Fans,Tampa Bay Lightning,NHL,Land O' Lakes,Land O Lakes,Land O Lakes,34637,28.302024,-82.455707,77,Native American,avid,0,0,0,0,0,0,0,0,0,0,0,0,1,0,1,0
Fans,Tampa Bay Lightning,NHL,Largo,Largo,Largo,33770,27.916998,-82.802668,72,Native American,avid,0,0,0,0,0,0,0,0,0,0,0,0,0,0,0,0
Fans,Tampa Bay Lightning,NHL,Lealman,Saint Petersburg,Saint Petersburg,33714,27.817335,-82.68324,55,Native American,avid,0,0,0,0,0,0,0,0,0,0,0,0,0,0,0,0
Fans,Tampa Bay Lightning,NHL,Lecanto,Lecanto,Lecanto,34461,28.866136,-82.494513,40,Native American,avid,0,0,0,0,0,0,0,0,0,0,0,0,0,0,0,0
Fans,Tampa Bay Lightning,NHL,Lithia,Lithia,Lithia,33547,27.8603,-82.19787,51,Native American,avid,0,0,0,0,0,0,0,0,0,0,0,0,0,0,0,0
Fans,Tampa Bay Lightning,NHL,Longboat Key,Longboat Key,Longboat Key,34228,27.41254,-82.65899,22,Native American,casual,0,0,0,0,0,0,0,0,0,1,1,0,0,0,0,1
Fans,Tampa Bay Lightning,NHL,Lutz,Lutz,Lutz,33548,28.147189,-82.483778,76,Native American,avid,0,0,0,0,0,0,0,0,0,0,0,0,0,0,0,0
Fans,Tampa Bay Lightning,NHL,Mandan,Mandan,Mandan,58554,46.71312,-100.952585,0,Native American,convertible,0,0,0,0,0,0,0,0,0,0,0,0,0,0,0,0
Fans,Tampa Bay Lightning,NHL,Mango,Mango,Mango,33550,27.979744,-82.306481,32,Native American,casual,0,1,1,1,0,1,1,1,1,2,2,3,3,1,2,1
Fans,Tampa Bay Lightning,NHL,Marlborough,Marlborough,Marlborough,1752,42.34909,-71.54546,0,Native American,convertible,0,0,0,0,0,0,0,0,0,0,0,1,1,0,0,1
Fans,Tampa Bay Lightning,NHL,McGregor,Mcgregor,Mcgregor,55760,46.607188,-93.30756,8,Native American,casual,0,0,0,0,0,0,0,0,0,0,0,0,0,0,0,0
